City_ID,City,Lat,Lng,Max Temp,Humidity,Cloudiness,Wind Speed,Country,Date
0,iqaluit,63.7506,-68.5145,6.85,75,75,2.57,CA,1694385998
1,labrador city,52.9463,-66.9114,13.95,58,40,3.09,CA,1694385912
2,keflavik,64.0049,-22.5624,7.95,76,75,7.2,IS,1694385998
3,invercargill,-46.4,168.35,6.12,87,69,6.26,NZ,1694385999
4,brokopondo,4.75,-55.1667,29.8,64,48,5.48,SR,1694385999
5,fortuna,40.5982,-124.1573,23.51,49,20,6.69,US,1694386000
6,grytviken,-54.2811,-36.5092,-1.61,85,85,2.86,GS,1694386000
7,port-aux-francais,-49.35,70.2167,2.43,71,68,10.03,TF,1694386000
8,longyearbyen,78.2186,15.6401,1.91,75,75,7.2,SJ,1694386006
9,puerto ayora,-0.7393,-90.3518,26.98,93,44,3.13,EC,1694386008
10,tura,25.5198,90.2201,24.52,93,100,0.78,IN,1694386010
11,adamstown,-25.066,-130.1015,21.4,89,17,7.15,PN,1694386011
12,bredasdorp,-34.5322,20.0403,7.56,74,96,5.22,ZA,1694386012
13,sao vicente,-23.9631,-46.3919,23.48,26,71,0.89,BR,1694386013
14,kapuskasing,49.4169,-82.4331,18.05,72,75,2.57,CA,1694386013
15,yellowknife,62.456,-114.3525,18.56,58,20,5.14,CA,1694386013
16,west island,-12.1568,96.8225,24.99,78,40,5.14,CC,1694386014
17,brisas de zicatela,15.8369,-97.0419,30.29,54,75,1.54,MX,1694386014
18,bubaque,11.2833,-15.8333,27.57,80,92,4.86,GW,1694386014
19,wenchang,30.904,118.4887,24.35,89,84,0.81,CN,1694386015
20,genhe,50.7833,121.5167,5.27,97,100,3.87,CN,1694386015
21,hawaiian paradise park,19.5933,-154.9731,27.73,78,100,3.6,US,1694386016
22,dryden,49.7833,-92.7503,19.16,48,75,3.6,CA,1694386016
23,anadyr,64.75,177.4833,8.28,65,20,4.0,RU,1694386016
24,buka,40.8108,69.1986,21.47,38,19,1.52,UZ,1694386017
25,thunder bay,48.4001,-89.3168,18.95,63,75,2.06,CA,1694385728
26,tazovsky,67.4667,78.7,9.63,84,100,5.19,RU,1694386017
27,port mathurin,-19.6833,63.4167,22.77,72,55,8.91,MU,1694386018
28,st. john's,47.5649,-52.7093,21.82,89,40,3.6,CA,1694386018
29,bethel,41.3712,-73.414,23.53,85,0,1.54,US,1694385773
30,edinburgh of the seven seas,-37.0676,-12.3116,12.17,75,100,12.52,SH,1694386019
31,tolanaro,-25.0319,46.9987,22.04,83,0,9.77,MG,1694386019
32,avarua,-21.2078,-159.775,24.03,73,75,5.14,CK,1694386019
33,suzaka,36.65,138.3167,25.45,83,93,2.06,JP,1694386020
34,lihue,21.9789,-159.3672,29.58,70,40,7.2,US,1694386020
35,corn island,12.1694,-83.0418,28.48,76,51,5.43,NI,1694386020
36,yuzhno-kurilsk,44.0306,145.8556,18.6,88,84,1.37,RU,1694386021
37,arraial do cabo,-22.9661,-42.0278,21.92,88,20,2.57,BR,1694386021
38,coxen hole,16.3244,-86.5366,30.6,74,20,7.72,HN,1694386017
39,hasaki,35.7333,140.8333,27.38,84,100,2.37,JP,1694386022
40,lillehammer,61.1146,10.4674,14.37,92,72,0.77,NO,1694386022
41,puerto baquerizo moreno,-0.9,-89.6,26.55,74,20,6.69,EC,1694386023
42,bereeda,11.8704,51.0579,29.3,66,77,0.61,SO,1694386023
43,stanley,54.868,-1.6985,17.38,94,75,3.6,GB,1694386023
44,enewetak,11.3474,162.3373,28.95,72,73,3.44,MH,1694386024
45,berezovo,63.9381,65.0419,9.98,75,81,1.34,RU,1694386024
46,ribeira grande,38.5167,-28.7,20.99,85,13,2.24,PT,1694386024
47,vila velha,-20.3297,-40.2925,22.97,92,20,4.63,BR,1694386025
48,blackmans bay,-43.0167,147.3167,5.29,86,83,1.85,AU,1694386025
49,turtas,58.9417,69.1325,8.31,86,11,1.9,RU,1694386025
50,korla,41.7597,86.1469,22.86,27,5,2.6,CN,1694386026
51,margaret river,-33.95,115.0667,15.98,87,3,5.65,AU,1694386026
52,isafjordur,66.0755,-23.124,4.95,64,2,2.55,IS,1694386027
53,novodvinsk,64.4165,40.8122,9.87,94,11,2.4,RU,1694386027
54,pittsburg,38.028,-121.8847,34.67,27,0,4.63,US,1694386028
55,waitangi,-43.9535,-176.5597,13.23,85,20,4.47,NZ,1694386028
56,atafu village,-8.5421,-172.5159,28.05,74,100,2.83,TK,1694386028
57,utrik,11.2278,169.8474,28.58,77,99,5.35,MH,1694386029
58,andapa,-14.65,49.65,15.32,99,26,1.23,MG,1694386029
59,xanthi,41.1414,24.8836,16.38,62,0,4.1,GR,1694386029
60,albany,42.6001,-73.9662,22.6,96,100,0.77,US,1694386030
61,papatowai,-46.5619,169.4708,5.18,92,55,6.74,NZ,1694386030
62,kone,-21.0595,164.8658,25.08,52,1,2.18,NC,1694386030
63,la ronge,55.1001,-105.2842,19.12,32,20,3.09,CA,1694386031
64,bilibino,68.0546,166.4372,5.83,68,19,0.47,RU,1694386031
65,ushuaia,-54.8,-68.3,5.81,65,20,1.03,AR,1694385744
66,klyuchi,52.2667,79.1667,14.91,60,100,6.53,RU,1694386032
67,mount gambier,-37.8333,140.7667,10.25,83,65,2.12,AU,1694386032
68,kodiak,57.79,-152.4072,10.73,76,100,5.14,US,1694386032
69,antsohihy,-14.8796,47.9875,21.06,71,0,2.51,MG,1694386033
70,dudinka,69.4058,86.1778,10.9,98,100,4.47,RU,1694386033
71,saldanha,-33.0117,17.9442,10.03,49,100,6.41,ZA,1694386034
72,broome,42.2506,-75.833,22.53,83,97,1.48,US,1694386034
73,atar,20.5169,-13.0499,33.75,37,75,4.22,MR,1694386034
74,"laikit, laikit ii (dimembe)",1.4792,124.9735,22.47,94,20,1.03,ID,1694386035
75,el tocuyo,9.7873,-69.7937,25.57,73,91,2.91,VE,1694386035
76,ta`u,-14.2336,-169.5144,26.58,77,43,4.19,AS,1694386036
77,punta arenas,-53.15,-70.9167,4.06,93,100,5.66,CL,1694385804
78,la gi,10.6667,107.7833,24.67,91,100,2.94,VN,1694386036
79,ilulissat,69.2167,-51.1,3.01,60,20,1.54,GL,1694386037
80,kaka,37.3482,59.6143,20.05,59,0,7.76,TM,1694386037
81,cabo san lucas,22.8909,-109.9124,35.9,64,0,3.13,MX,1694385382
82,coquimbo,-29.9533,-71.3436,15.85,82,0,5.66,CL,1694386038
83,key largo,25.0865,-80.4473,30.0,68,0,2.57,US,1694385824
84,vadso,70.0744,29.7487,9.49,93,0,1.54,NO,1694386039
85,aasiaat,68.7098,-52.8699,-0.69,70,100,2.65,GL,1694386039
86,ad dabbah,18.05,30.95,36.63,13,63,5.12,SD,1694386039
87,abadan,30.3392,48.3043,31.97,25,0,1.03,IR,1694386040
88,college,64.8569,-147.8028,14.33,59,75,0.0,US,1694386040
89,palapag,12.5458,125.1147,26.55,82,87,2.0,PH,1694386040
90,shahrud,36.4182,54.9763,16.97,74,1,5.9,IR,1694386041
91,flin flon,54.7682,-101.865,16.91,48,75,2.06,CA,1694386041
92,astoria,46.1879,-123.8313,22.0,60,0,6.17,US,1694385818
93,tamanrasset,22.785,5.5228,25.95,44,40,2.06,DZ,1694385879
94,wailua homesteads,22.0669,-159.378,29.24,70,40,7.2,US,1694386042
95,tiksi,71.6872,128.8694,3.24,67,4,4.28,RU,1694386042
96,smithers,54.7804,-127.1743,25.18,27,75,4.12,CA,1694385898
97,georgetown,5.4112,100.3354,27.19,95,20,1.54,MY,1694385810
98,hermanus,-34.4187,19.2345,10.45,67,100,7.47,ZA,1694386043
99,cobija,-11.0267,-68.7692,31.96,39,97,1.96,BO,1694386044
100,kangding,30.0513,101.9603,13.54,92,100,1.35,CN,1694386044
101,udachny,66.4167,112.4,4.14,55,43,3.91,RU,1694386044
102,sitka,57.0531,-135.33,21.94,37,75,6.17,US,1694386045
103,porto novo,6.4965,2.6036,25.9,90,12,3.34,BJ,1694386045
104,soe,-9.8607,124.284,20.95,74,7,2.88,ID,1694386046
105,petropavlovsk-kamchatsky,53.0452,158.6483,14.33,47,20,5.0,RU,1694386046
106,funafuti,-8.5243,179.1942,32.0,84,75,2.06,TV,1694386047
107,alaghsas,17.0187,8.0168,31.6,33,83,7.08,NE,1694386047
108,olonkinbyen,70.9221,-8.7187,2.26,68,83,2.92,SJ,1694386048
109,mount pearl,47.5166,-52.7813,21.36,89,40,3.6,CA,1694386048
110,ahmadpur sial,30.6754,71.7483,30.11,43,3,3.23,PK,1694386048
111,puerto natales,-51.7236,-72.4875,2.93,99,100,0.3,CL,1694386049
112,at taj,24.2049,23.2857,25.95,39,0,4.47,LY,1694386049
113,correntina,-13.3433,-44.6367,25.04,28,0,2.24,BR,1694386050
114,mossendjo,-2.9506,12.7261,21.99,83,98,2.08,CG,1694386050
115,hell-ville,-13.4,48.2667,24.95,73,12,1.72,MG,1694386050
116,mutuali,-14.8706,37.0044,22.04,47,0,2.34,MZ,1694386051
117,labuan,5.2767,115.2417,25.2,94,40,0.51,MY,1694386051
118,puerto armuelles,8.2833,-82.8667,28.99,72,54,0.45,PA,1694386051
119,svetogorsk,61.1121,28.8632,14.36,94,47,1.68,RU,1694386052
120,la passe,45.5549,-0.8967,23.13,90,82,2.15,FR,1694386052
121,talnakh,69.4865,88.3972,10.67,99,100,1.99,RU,1694386052
122,lubango,-14.9172,13.4925,16.92,48,17,0.51,AO,1694386053
123,san juan,-31.5375,-68.5364,27.63,6,77,11.89,AR,1694385841
124,zouerate,22.7187,-12.4521,32.39,33,77,2.94,MR,1694386053
125,khabarovsk,48.4808,135.0928,12.89,93,20,2.0,RU,1694386054
126,vorgashor,67.5833,63.95,7.89,91,99,4.09,RU,1694386054
127,san antonio de pale,-1.4014,5.6325,23.83,86,36,5.29,GQ,1694386055
128,la'ie,21.6477,-157.9253,30.98,66,98,2.24,US,1694386055
129,altay,47.8667,88.1167,15.01,45,97,2.83,CN,1694386055
130,palma sola,-23.9634,-64.2987,23.22,50,0,1.93,AR,1694386056
131,afaahiti,-17.75,-149.2833,26.93,78,0,5.79,PF,1694386056
132,greymouth,-42.4667,171.2,10.27,91,100,2.04,NZ,1694386056
133,jamestown,42.097,-79.2353,21.77,80,100,3.6,US,1694385857
134,toamasina,-18.1667,49.3833,20.0,94,40,1.03,MG,1694386057
135,tongliao,43.6125,122.2653,19.38,87,1,6.1,CN,1694386057
136,smara,26.7384,-11.6719,24.08,57,1,5.87,EH,1694386058
137,princeville,45.7668,-61.2985,20.36,89,0,0.0,CA,1694386058
138,taoudenni,22.6783,-3.9836,36.27,24,50,10.81,ML,1694386058
139,urzhar,47.093,81.6294,19.91,47,77,1.57,KZ,1694386059
140,chonchi,-42.6128,-73.8092,10.56,92,89,1.43,CL,1694386059
141,oamaru,-45.0784,170.9801,12.43,74,100,2.57,NZ,1694386059
142,ingeniero jacobacci,-41.3427,-69.5448,6.64,69,70,8.93,AR,1694386060
143,de aar,-30.6497,24.0123,8.83,53,0,4.26,ZA,1694386060
144,maitum,6.0392,124.4986,26.85,75,60,1.0,PH,1694386060
145,soto la marina,23.7667,-98.2167,35.27,40,0,7.01,MX,1694386061
146,callao,-12.0667,-77.15,20.16,73,75,5.66,PE,1694385723
147,villamontes,-21.25,-63.5,32.25,28,0,4.04,BO,1694386061
148,sereflikochisar,38.9393,33.5386,16.15,51,79,5.86,TR,1694386062
149,dakhla,23.6848,-15.958,21.57,87,0,7.61,EH,1694386062
150,kandalaksha,67.162,32.4123,12.17,89,92,0.45,RU,1694386062
151,saudarkrokur,65.7461,-19.6394,5.15,83,99,1.94,IS,1694386063
152,al qadarif,14.0349,35.3834,26.31,78,71,4.05,SD,1694386063
153,nogliki,51.8333,143.1667,13.94,72,87,3.19,RU,1694386064
154,northallerton,54.339,-1.4324,19.25,94,75,1.03,GB,1694386064
155,farkhar,36.5729,69.8578,23.49,16,0,3.88,AF,1694386064
156,betul,21.9153,77.8961,21.3,92,100,4.72,IN,1694385783
157,port alfred,-33.5906,26.891,15.66,85,88,3.58,ZA,1694386065
158,pangody,65.85,74.4859,11.67,71,99,5.07,RU,1694386065
159,marco,25.9726,-81.729,32.79,60,0,2.85,US,1694386066
160,labytnangi,66.6572,66.4183,9.61,77,73,2.99,RU,1694386066
161,bamboo flat,11.7,92.7167,26.05,89,100,4.63,IN,1694386066
162,thompson,55.7435,-97.8558,15.09,44,40,3.09,CA,1694386067
163,timimoun,29.2639,0.231,35.21,17,0,1.03,DZ,1694386067
164,thai binh,20.45,106.3333,25.42,91,83,1.93,VN,1694386068
165,margate,51.3813,1.3862,21.5,77,82,1.34,GB,1694386068
166,pariaman,-0.619,100.12,22.03,85,27,2.0,ID,1694386068
167,masvingo,-20.0637,30.8277,19.08,22,0,1.9,ZW,1694386069
168,urangan,-25.3,152.9,20.14,57,35,8.9,AU,1694386069
169,colonia,50.9333,6.95,24.42,80,0,1.03,DE,1694385627
170,san gregorio de nigua,18.3833,-70.0833,31.61,79,35,1.81,DO,1694386070
171,dunedin,-45.8742,170.5036,14.48,70,83,0.89,NZ,1694385979
172,hithadhoo,-0.6,73.0833,27.74,75,72,5.03,MV,1694386070
173,dolinsk,47.35,142.8,17.89,85,99,1.7,RU,1694386071
174,mar del plata,-38.0023,-57.5575,15.01,82,75,2.57,AR,1694385853
175,peterhead,57.5058,-1.7981,17.22,99,100,6.58,GB,1694386071
176,belyy yar,53.6039,91.3903,4.94,93,0,0.0,RU,1694386072
177,new plymouth,-39.0667,174.0833,12.4,75,100,8.81,NZ,1694386072
178,bom jesus,-9.0744,-44.3586,26.92,30,4,2.09,BR,1694386073
179,hovd,48.0056,91.6419,9.29,52,71,0.56,MN,1694386073
180,juneau,58.3019,-134.4197,19.5,93,75,3.09,US,1694386073
181,ketchikan,55.3422,-131.6461,21.26,49,0,7.2,US,1694386074
182,borodulikha,50.7184,80.9295,16.22,74,90,4.27,KZ,1694386074
183,zarghun shahr,32.8473,68.4457,16.66,16,0,1.36,AF,1694386074
184,san luis de la loma,17.2706,-100.8939,27.66,86,69,0.55,MX,1694386075
185,ikryanoye,46.0932,47.7308,10.99,71,1,4.93,RU,1694386075
186,conception bay south,47.4999,-52.9981,21.69,91,80,3.28,CA,1694386076
187,butembo,0.15,29.2833,14.13,95,96,0.96,CD,1694386076
188,kitami,43.8031,143.8908,22.3,84,97,1.1,JP,1694386076
189,ust-nera,64.5667,143.2,2.55,95,100,2.34,RU,1694386077
190,taghazout,30.5426,-9.7112,22.43,73,10,1.64,MA,1694386077
191,condom,43.9167,0.3333,23.25,59,57,2.13,FR,1694386077
192,cill airne,52.05,-9.5167,15.57,99,97,1.45,IE,1694386078
193,geraldton,-28.7667,114.6,11.23,100,40,2.57,AU,1694386078
194,fernie,49.5,-115.0687,24.38,25,0,1.76,CA,1694386078
195,namibe,-15.1961,12.1522,16.8,87,91,1.77,AO,1694386079
196,youkounkoun,12.5333,-13.1333,23.89,97,100,2.7,GN,1694386079
197,aginskoye,51.1,114.53,6.12,77,17,6.36,RU,1694386079
198,rio grande,-32.035,-52.0986,18.06,93,90,5.81,BR,1694386080
199,norderney,53.7,7.15,20.55,81,91,5.13,DE,1694386080
200,rio gallegos,-51.6226,-69.2181,5.03,100,100,3.6,AR,1694386080
201,hammerfest,70.6634,23.6821,10.25,87,75,6.69,NO,1694386081
202,selfoss,63.9331,-20.9971,7.25,83,99,3.06,IS,1694386081
203,ocean shores,46.9737,-124.1563,23.86,79,0,5.14,US,1694386082
204,natal,-5.795,-35.2094,25.36,83,20,5.14,BR,1694385894
205,hailey,43.5196,-114.3153,27.22,25,0,5.36,US,1694386082
206,saint-pierre,-21.3393,55.4781,19.2,77,0,2.57,RE,1694386083
207,glenvale,-27.5648,151.9076,13.82,64,0,2.68,AU,1694386083
208,fale old settlement,-9.3852,-171.2468,28.03,75,89,3.29,TK,1694386083
209,cabedelo,-6.9811,-34.8339,24.37,78,1,6.19,BR,1694385828
210,newman,37.3138,-121.0208,34.47,13,0,2.29,US,1694386084
211,baruun-urt,46.6806,113.2792,6.39,64,20,3.38,MN,1694386084
212,bukittinggi,-0.3091,100.3706,16.89,93,46,1.07,ID,1694386085
213,remire-montjoly,4.9167,-52.2667,28.02,83,0,3.6,GF,1694386085
214,pisco,-13.7,-76.2167,22.03,64,0,5.14,PE,1694386068
215,pacific grove,36.6177,-121.9166,28.14,82,20,3.58,US,1694386086
216,nar'yan-mar,67.6713,53.087,10.91,91,21,5.23,RU,1694386087
217,east london,-33.0153,27.9116,17.84,80,96,4.82,ZA,1694386087
218,kishanganj,26.1167,87.9333,28.27,79,73,1.3,IN,1694386087
219,ambon,-3.6954,128.1814,27.15,95,75,2.06,ID,1694386088
220,ratnagiri,16.9833,73.3,25.92,88,100,3.35,IN,1694386088
221,poronaysk,49.2167,143.1167,15.41,78,100,0.48,RU,1694386089
222,aquiraz,-3.9014,-38.3911,27.05,80,0,6.66,BR,1694386089
223,aioun,16.6614,-9.6149,31.55,46,93,4.29,MR,1694386089
224,pathein,16.7833,94.7333,24.74,95,100,3.61,MM,1694386090
225,egilsstadir,65.2653,-14.3948,2.95,100,100,4.63,IS,1694386090
226,dukhan,25.4297,50.7858,32.37,63,6,2.95,QA,1694386090
227,cidreira,-30.1811,-50.2056,17.79,91,87,8.83,BR,1694385905
228,saint croix,17.7397,-64.7388,31.25,84,0,3.6,VI,1694386091
229,villiers,-27.0303,28.6006,18.5,28,0,3.18,ZA,1694386091
230,kodinsk,58.6881,99.1844,6.21,72,97,1.24,RU,1694386092
231,laojunmiao,39.8333,97.7333,14.92,34,0,1.98,CN,1694386092
232,ortona,42.3496,14.4039,23.15,62,33,1.8,IT,1694386093
233,lata,40.1629,-8.3327,18.37,97,54,0.15,PT,1694386093
234,kununurra,-15.7667,128.7333,27.99,21,93,6.69,AU,1694386093
235,viedma,-40.8135,-62.9967,14.2,47,45,4.27,AR,1694385971
236,baoding,38.8511,115.4903,20.34,93,87,1.45,CN,1694386094
237,salekhard,66.53,66.6019,9.25,77,70,3.42,RU,1694386094
238,port lincoln,-34.7333,135.8667,14.77,52,70,4.72,AU,1694385580
239,yakeshi,49.2833,120.7333,7.78,95,100,4.5,CN,1694386095
240,turpan,42.9333,89.1667,27.58,21,25,1.05,CN,1694386095
241,moranbah,-22.0016,148.0466,19.97,54,1,8.67,AU,1694386096
242,glasgow,55.8652,-4.2576,19.0,89,100,2.57,GB,1694385898
243,happy valley-goose bay,53.3168,-60.3315,12.17,82,75,1.54,CA,1694386096
244,aykhal,66.0,111.5,1.88,73,30,4.4,RU,1694386097
245,tadine,-21.55,167.8833,23.0,67,9,4.94,NC,1694386097
246,constantia,44.1833,28.65,14.38,53,1,4.14,RO,1694385846
247,wuhu,31.3366,118.3755,23.53,90,87,2.1,CN,1694386098
248,vorkuta,67.5,64.0,7.91,91,100,4.0,RU,1694386098
249,tual,-5.6667,132.75,25.38,87,80,9.79,ID,1694386098
250,farsan,32.2569,50.561,13.02,17,0,1.14,IR,1694386099
251,polyarnyy,69.1989,33.4478,10.52,86,96,2.98,RU,1694386099
252,nidzica,53.3605,20.4275,13.77,65,2,2.66,PL,1694386059
253,lebu,-37.6167,-73.65,10.26,90,100,2.97,CL,1694386039
254,koh kong,11.6175,102.9806,25.1,92,100,5.93,KH,1694386100
255,qaqortoq,60.7167,-46.0333,4.25,80,100,1.67,GL,1694386100
256,tazacorte,28.629,-17.9293,24.54,81,0,2.68,ES,1694386101
257,bairnsdale,-37.8333,147.6167,13.36,76,8,2.86,AU,1694386101
258,lichinga,-13.3128,35.2406,16.98,55,0,2.27,MZ,1694386101
259,severo-yeniseyskiy,60.3725,93.0408,5.33,73,99,0.65,RU,1694386102
260,tammela,60.8104,23.7682,15.11,97,59,1.18,FI,1694386102
261,burang,30.25,81.1667,6.95,100,100,0.94,CN,1694386102
262,revda,56.801,59.9303,8.24,96,100,3.78,RU,1694386103
263,hamilton,39.1834,-84.5333,27.36,59,40,4.63,US,1694385745
264,minas de marcona,-15.2119,-75.1103,16.4,65,16,4.52,PE,1694386103
265,san juan de uraba,8.7592,-76.5297,26.78,85,100,2.65,CO,1694386104
266,rizhao,35.4275,119.4553,22.55,85,99,1.3,CN,1694386104
267,shalya,57.2471,58.7298,9.24,94,100,4.22,RU,1694386105
268,masterton,-40.9597,175.6575,14.94,62,68,4.7,NZ,1694386105
269,rasht,37.2808,49.5832,18.89,90,100,1.35,IR,1694386106
270,waiuku,-37.25,174.75,17.7,85,100,5.27,NZ,1694386106
271,kuressaare,58.2481,22.5039,16.68,100,40,4.92,EE,1694386106
272,bumba,2.1833,22.4667,22.27,90,67,0.33,CD,1694386107
273,nuku'alofa,-21.1333,-175.2,25.19,65,20,7.72,TO,1694386107
274,changde,29.0464,111.6783,24.62,90,54,1.72,CN,1694386107
275,vilyuchinsk,52.9306,158.4028,15.15,43,6,3.93,RU,1694386108
276,floro,61.5996,5.0328,14.04,94,100,2.06,NO,1694386108
277,twentynine palms,34.1356,-116.0542,35.54,30,93,3.38,US,1694386109
278,rizokarpaso,35.6,34.375,26.5,75,0,5.64,CY,1694386109
279,el galpon,-25.3807,-64.6526,25.02,49,0,1.86,AR,1694386110
280,anar darah,32.7587,61.654,29.81,10,0,2.24,AF,1694386110
281,coahuayana de hidalgo,18.7,-103.6583,30.62,72,34,2.58,MX,1694386111
282,howrah,22.5892,88.3103,28.0,94,40,0.0,IN,1694386111
283,rongelap,11.1635,166.8941,28.89,74,63,5.05,MH,1694386111
284,vryburg,-26.9566,24.7284,15.18,32,24,1.87,ZA,1694386112
285,quellon,-43.1167,-73.6167,10.14,71,40,2.06,CL,1694386112
286,fort william,56.8165,-5.1121,16.28,98,100,1.38,GB,1694386112
287,fort mcmurray,56.7268,-111.381,24.77,38,0,5.66,CA,1694385916
288,freetown,8.484,-13.2299,25.37,85,100,2.97,SL,1694386114
289,agaro,7.85,36.65,16.35,98,99,0.87,ET,1694386114
290,tralee,52.2704,-9.7026,15.0,97,99,2.09,IE,1694386114
291,mount isa,-20.7333,139.5,20.87,16,10,5.14,AU,1694386115
292,susuman,62.7833,148.1667,2.27,99,100,0.43,RU,1694386115
293,kirakira,-10.4544,161.9205,28.4,64,60,3.64,SB,1694386115
294,muncar,-8.4333,114.3333,23.24,84,46,0.22,ID,1694386116
295,soio,-6.1349,12.3689,22.86,86,41,4.07,AO,1694386116
296,valdobbiadene,45.8993,11.9946,20.72,81,6,1.93,IT,1694386116
297,kerikeri,-35.2268,173.9474,16.06,94,93,2.24,NZ,1694386117
298,gyanpur,25.35,82.4667,27.02,80,96,2.69,IN,1694386117
299,ponta delgada,37.7333,-25.6667,20.4,83,20,3.6,PT,1694386117
300,trairi,-3.2778,-39.2689,25.74,78,0,6.4,BR,1694386118
301,new shagunnu,10.3396,4.4688,26.31,84,35,2.76,NG,1694386118
302,manokwari,-0.8667,134.0833,23.68,92,100,2.26,ID,1694386118
303,priozersk,61.0393,30.1291,16.08,91,64,2.06,RU,1694386119
304,hadibu,12.65,54.0333,26.29,81,88,7.86,YE,1694386119
305,colesberg,-30.72,25.0972,10.3,47,0,3.68,ZA,1694386119
306,laiwu,36.1928,117.6569,22.38,82,100,0.92,CN,1694386120
307,altamont,42.2068,-121.7372,28.27,26,0,2.24,US,1694386120
308,carutapera,-1.195,-46.02,26.29,82,7,4.44,BR,1694386120
309,isla vista,34.4133,-119.861,34.64,52,11,3.76,US,1694385966
310,singapore,1.2897,103.8501,27.92,87,75,2.06,SG,1694385897
311,antalaha,-14.9003,50.2788,20.25,83,35,2.99,MG,1694386122
312,agat village,13.3886,144.6585,28.52,91,20,3.09,GU,1694386122
313,smirnykh,49.75,142.8333,16.84,69,100,0.65,RU,1694386122
314,achikulak,44.5517,44.8378,12.86,69,5,3.89,RU,1694386123
315,nishinoomote,30.7333,131.0,26.86,73,59,3.43,JP,1694386123
316,whitehorse,60.7161,-135.0538,18.39,48,75,2.06,CA,1694385876
317,lompoc,34.6391,-120.4579,33.34,68,0,4.63,US,1694386124
318,portland,45.5234,-122.6762,29.62,43,20,2.24,US,1694385999
319,xianyang,34.3378,108.7026,23.58,83,100,4.0,CN,1694386124
320,hunfeld,50.6797,9.7673,18.74,89,25,0.85,DE,1694386125
321,coeur d'alene,47.6777,-116.7805,30.37,24,0,2.24,US,1694385864
322,nadym,65.5333,72.5167,10.73,76,100,5.13,RU,1694386125
323,prince george,53.9166,-122.753,28.69,29,0,9.77,CA,1694386126
324,ulety,51.3572,112.4849,5.12,87,12,2.91,RU,1694386126
325,queenstown,-31.8976,26.8753,12.09,43,0,1.52,ZA,1694385625
326,zeya,53.75,127.2667,8.49,85,100,1.51,RU,1694386127
327,le port,-20.9373,55.2919,21.98,86,3,2.89,RE,1694386025
328,markovo,57.3206,107.0881,3.51,90,67,1.25,RU,1694386127
329,hue,16.4667,107.6,26.06,89,40,2.06,VN,1694386128
330,san patricio,28.017,-97.5169,37.4,49,42,6.58,US,1694386128
331,junction city,39.0286,-96.8314,31.89,30,75,6.69,US,1694386128
332,kokoda,-8.8785,147.7407,22.63,98,100,0.53,PG,1694386129
333,fuerte olimpo,-21.0415,-57.8738,31.79,33,0,2.74,PY,1694386129
334,manay,7.215,126.5397,27.15,79,91,1.48,PH,1694386129
335,bodden town,19.2833,-81.25,32.0,76,20,4.63,KY,1694386130
336,katsuren-haebaru,26.3369,127.8719,28.01,88,20,2.06,JP,1694386131
337,bereznik,62.8551,42.7072,8.69,96,0,1.84,RU,1694386131
338,iskateley,67.6803,53.1512,10.86,91,23,5.24,RU,1694386131
339,tanda,26.55,82.65,26.05,90,99,3.01,IN,1694386132
340,qui nhon,13.7667,109.2333,26.58,77,99,2.91,VN,1694386132
341,zuenoula,7.4292,-6.0431,22.73,92,61,1.57,CI,1694386132
342,new norfolk,-42.7826,147.0587,5.95,80,84,1.18,AU,1694386133
343,kupang,-10.1667,123.5833,26.32,78,20,3.6,ID,1694386135
344,pimentel,-6.8367,-79.9342,24.16,64,20,7.72,PE,1694386135
345,dubovskoye,47.4092,42.7575,15.39,55,59,2.66,RU,1694386136
346,kapit,2.0167,112.9333,22.89,100,100,0.56,MY,1694386136
347,spring creek,40.7266,-115.5859,28.23,19,15,5.1,US,1694386136
348,devarkonda,16.7,78.9333,23.95,92,100,3.83,IN,1694386137
349,sinan,34.8262,126.1086,21.06,79,2,2.21,KR,1694386137
350,seagoville,32.6396,-96.5383,34.79,27,0,5.14,US,1694386138
351,badger,64.8,-147.5333,14.28,63,75,0.45,US,1694386138
352,quibdo,5.6947,-76.6611,27.19,94,75,3.09,CO,1694386139
353,yen bai,21.7,104.8667,24.75,95,99,1.15,VN,1694386139
354,samraong,12.4526,105.5873,23.39,96,100,1.16,KH,1694386139
355,port elizabeth,-33.918,25.5701,13.16,94,40,10.8,ZA,1694386140
356,saipan,15.1355,145.701,28.39,89,40,4.12,MP,1694386140
357,dubbo,-32.25,148.6167,10.07,66,2,3.09,AU,1694386140
358,inarajan village,13.2736,144.7484,28.54,95,100,6.77,GU,1694386141
359,tsiombe,-25.3,45.4833,21.59,68,0,0.64,MG,1694386141
360,cape coast,5.1053,-1.2466,24.2,92,19,3.98,GH,1694386141
361,zuyevka,58.405,51.1335,12.4,74,92,2.94,RU,1694386142
362,port saint john's,-31.6229,29.5448,18.85,78,83,3.25,ZA,1694386142
363,babolsar,36.7025,52.6576,20.48,82,100,5.82,IR,1694386143
364,aral,40.5156,81.2636,22.66,23,38,3.71,CN,1694386143
365,bujaru,-1.515,-48.0447,24.14,95,58,1.58,BR,1694386143
366,uturoa,-16.7333,-151.4333,26.42,73,1,3.3,PF,1694386144
367,kismayo,-0.3582,42.5454,24.72,88,90,5.46,SO,1694386144
368,buala,-8.145,159.5921,27.26,78,80,4.24,SB,1694386145
369,paramonga,-10.6667,-77.8333,19.66,81,11,3.89,PE,1694386145
370,papao,-17.75,-149.55,27.82,74,0,5.8,PF,1694386145
371,midvagur,62.0511,-7.1939,10.46,100,100,3.6,FO,1694386146
372,gamba,-2.65,10.0,22.97,85,78,2.75,GA,1694386146
373,shizunai-furukawacho,42.3339,142.3669,22.53,88,99,4.86,JP,1694385984
374,rawson,-43.3002,-65.1023,14.98,40,67,5.14,AR,1694386147
375,malango,-2.9627,119.9001,20.26,97,82,0.38,ID,1694386148
376,haiku-pauwela,20.9219,-156.3051,30.01,57,20,12.86,US,1694386148
377,nova vicosa,-17.8919,-39.3719,22.71,79,12,4.2,BR,1694386148
378,qulsary,46.9531,54.0198,14.69,69,100,6.73,KZ,1694386149
379,arkhangel'sk,64.5401,40.5433,10.35,93,10,2.49,RU,1694386149
380,mili,6.0815,171.735,28.75,75,51,4.85,MH,1694386150
381,tofol,5.3248,163.0078,27.88,89,75,1.54,FM,1694386150
382,carloforte,39.145,8.3058,23.46,67,0,1.52,IT,1694386150
383,kaifeng,34.7911,114.3483,23.32,87,100,1.01,CN,1694386151
384,laurel,39.0993,-76.8483,26.99,80,40,2.06,US,1694385904
385,meadow lake,34.8014,-106.5436,29.36,34,100,1.39,US,1694386152
386,prince rupert,54.3161,-130.3201,19.05,55,75,10.29,CA,1694386152
387,konarka,19.9,86.1167,27.22,86,55,2.92,IN,1694386153
388,saint-philippe,-21.3585,55.7679,18.77,77,43,4.82,RE,1694386153
389,luang prabang,19.8856,102.1347,22.88,99,100,0.51,LA,1694386153
390,shindand,33.3029,62.1474,27.62,13,0,2.55,AF,1694386154
391,gadzhiyevo,69.2551,33.3362,10.53,84,95,3.04,RU,1694386154
392,murun-kuren,49.6342,100.1625,3.54,58,34,0.6,MN,1694386154
393,antsiranana,-12.2787,49.2917,22.56,75,34,7.39,MG,1694386155
394,altai,46.3722,96.2583,5.65,45,26,1.34,MN,1694386155
395,coyhaique,-45.5752,-72.0662,7.97,53,40,2.06,CL,1694385905
396,gueckedou,8.6667,-10.25,21.75,98,99,1.83,GN,1694386156
397,salalah,17.0151,54.0924,28.05,94,75,2.57,OM,1694386156
398,sao felix do xingu,-6.6447,-51.995,31.48,31,96,0.4,BR,1694386157
399,harstad,68.799,16.5293,10.66,91,29,4.92,NO,1694386157
400,naze,28.3667,129.4833,24.51,77,55,3.11,JP,1694386157
401,milagres,-7.3133,-38.9456,32.43,41,34,4.37,BR,1694386158
402,kutum,14.2,24.6667,26.91,50,99,7.3,SD,1694386158
403,muynoq,43.7683,59.0214,14.17,64,48,13.83,UZ,1694386158
404,lazaro cardenas,17.9583,-102.2,29.66,71,34,3.12,MX,1694386013
405,aripuana,-9.1667,-60.6333,29.45,50,86,0.65,BR,1694386159
406,vila franca do campo,37.7167,-25.4333,20.23,78,37,0.61,PT,1694386160
407,sisimiut,66.9395,-53.6735,4.06,82,40,4.18,GL,1694386160
408,nemuro,43.3236,145.575,17.19,92,93,1.59,JP,1694386160
409,kill devil hills,36.0307,-75.676,28.0,86,0,0.0,US,1694386161
410,saynshand,44.8824,110.1163,10.24,59,5,2.82,MN,1694386161
411,kousa,25.9141,32.7636,31.05,25,0,2.83,EG,1694386161
412,popondetta,-8.7537,148.2534,22.91,97,100,0.34,PG,1694386162
413,santana do livramento,-30.8908,-55.5328,18.33,94,100,2.22,BR,1694386162
414,luganville,-15.5333,167.1667,25.21,80,54,4.0,VU,1694386163
415,hsinchu,24.8036,120.9686,27.14,85,38,0.45,TW,1694385876
416,nadi,-17.8,177.4167,28.0,54,20,1.54,FJ,1694386163
417,sommerda,51.15,11.1,21.12,85,14,0.66,DE,1694386066
418,eseka,3.65,10.7667,21.99,100,72,1.13,CM,1694386164
419,santa terezinha,-29.9002,-50.0904,17.66,94,42,7.73,BR,1694386165
420,kingsbridge,50.2845,-3.7764,19.75,88,68,4.72,GB,1694386165
421,alice springs,-23.7,133.8833,12.9,53,0,25.48,AU,1694386165
422,kovdor,67.5662,30.4758,16.16,79,98,4.92,RU,1694386166
423,suwayr,30.1171,40.3893,28.52,25,0,4.06,SA,1694386166
424,valparaiso,-33.0393,-71.6273,16.11,80,100,2.57,CL,1694386166
425,nema,57.5067,50.5011,13.09,62,100,3.46,RU,1694386167
426,ribeira brava,32.65,-17.0667,22.62,72,28,1.74,PT,1694386167
427,carnarvon,-24.8667,113.6333,17.41,84,2,2.46,AU,1694386168
428,ouesso,1.6136,16.0517,22.22,91,83,1.06,CG,1694386168
429,chato,-2.6378,31.7669,22.31,71,91,0.81,TZ,1694386168
430,kovalam,8.3667,76.9967,26.05,89,75,3.09,IN,1694386169
431,kostomuksha,64.571,30.5767,14.8,89,94,2.44,RU,1694386169
432,codrington,-38.2667,141.9667,10.84,86,91,2.38,AU,1694386169
433,nurota,40.5614,65.6886,24.53,29,0,2.92,UZ,1694386170
434,solnechnyy,50.7214,136.6319,15.5,60,82,0.95,RU,1694386170
435,rafsanjan,30.4067,55.9939,28.1,13,0,0.72,IR,1694386170
436,ankang,32.68,109.0172,22.16,94,100,2.39,CN,1694386171
437,sola,-13.8833,167.55,25.66,74,57,5.6,VU,1694386172
438,oriximina,-1.7656,-55.8661,29.89,49,24,1.71,BR,1694386172
439,illizi,26.4833,8.4667,27.89,21,0,3.46,DZ,1694386172
440,ad dawadimi,24.5077,44.3924,31.64,13,3,4.25,SA,1694386173
441,gargalianoi,37.0667,21.6333,22.34,51,1,3.98,GR,1694386173
442,demopolis,32.5176,-87.8364,30.97,45,0,2.57,US,1694386173
443,huangshan,29.7114,118.3125,23.56,79,46,0.33,CN,1694386174
444,ciudad lazaro cardenas,17.9583,-102.2,29.66,71,34,3.12,MX,1694386174
445,alesund,62.4723,6.1549,14.39,93,100,0.0,NO,1694385950
446,santiago de cao,-7.9589,-79.2392,21.07,83,34,4.63,PE,1694386175
447,itamaraca,-7.7478,-34.8256,26.03,82,11,5.12,BR,1694386175
448,prado,-17.3411,-39.2208,22.82,79,2,3.81,BR,1694386175
449,al bayda',32.7627,21.7551,18.41,96,100,11.79,LY,1694386176
450,kham sakae saeng,15.3322,102.1728,26.62,89,100,3.55,TH,1694386176
451,axim,4.8699,-2.2405,24.23,92,40,2.97,GH,1694386176
452,san jose de jachal,-30.2406,-68.7469,24.31,6,24,12.11,AR,1694386177
453,gwadar,25.1216,62.3254,26.44,84,37,3.83,PK,1694386177
454,flying fish cove,-10.4217,105.6791,23.82,88,100,4.12,CX,1694386178
455,paita,-5.0892,-81.1144,20.44,80,47,6.89,PE,1694386178
456,nenagh bridge,52.8817,-8.1958,17.55,98,95,2.51,IE,1694386178
457,itapuranga,-15.5622,-49.9486,30.5,24,45,1.4,BR,1694386179
458,chinde,26.8418,88.0763,18.86,85,34,1.69,NP,1694386179
459,nassau,40.7507,-73.5829,25.41,79,20,2.06,US,1694386155
460,itoman,26.1247,127.6694,28.01,78,20,4.63,JP,1694386180
461,alofi,-19.0595,-169.9187,25.94,65,91,6.69,NU,1694386180
462,santiago de cuba,20.0247,-75.8219,31.06,70,40,3.09,CU,1694386181
463,nchelenge,-9.3451,28.734,22.65,51,59,1.34,ZM,1694386181
464,bulawayo,-20.15,28.5833,17.86,19,0,1.61,ZW,1694386181
465,quelimane,-17.8786,36.8883,23.97,88,0,5.66,MZ,1694386182
466,kruisfontein,-34.0033,24.7314,10.27,84,29,11.07,ZA,1694386182
467,luderitz,-26.6481,15.1594,12.77,86,18,2.65,NA,1694386182
468,hohhot,40.8106,111.6522,14.16,88,20,2.0,CN,1694385953
469,pitimbu,-7.4706,-34.8086,24.33,80,4,5.68,BR,1694386183
470,uchiza,-8.4592,-76.4633,27.5,54,37,1.32,PE,1694386184
471,ola,59.5833,151.2833,10.08,73,7,0.92,RU,1694386184
472,sabha,27.0377,14.4283,26.46,32,0,3.36,LY,1694386184
473,mikhaylovka,50.06,43.2379,12.1,76,7,3.77,RU,1694386185
474,al kiswah,33.3572,36.2428,21.27,59,0,3.3,SY,1694386185
475,cockburn town,21.4612,-71.1419,29.4,77,5,5.44,TC,1694386186
476,fayzabad,37.1166,70.58,21.21,19,0,2.38,AF,1694386186
477,sao jose da coroa grande,-8.8978,-35.1478,23.51,83,6,4.57,BR,1694386186
478,motril,36.7507,-3.5179,26.26,79,5,1.2,ES,1694386187
479,woolgoolga,-30.1106,153.2007,17.25,65,12,5.43,AU,1694386187
480,hailar,49.2,119.7,7.64,85,92,6.42,CN,1694386187
481,arco,45.9177,10.8867,23.03,73,4,1.34,IT,1694386188
482,lucapa,-8.4192,20.7447,23.02,63,100,3.23,AO,1694386188
483,hadgaon,19.5,77.6667,22.95,94,100,3.81,IN,1694386188
484,el porvenir,13.7617,-87.3458,33.63,71,75,1.05,HN,1694385859
485,jalai nur,49.45,117.7,9.21,78,98,3.57,CN,1694386189
486,saint-denis,48.9167,2.3333,25.64,67,0,3.09,FR,1694386190
487,varna,43.2167,27.9167,16.08,72,0,3.09,BG,1694385612
488,nichinan,31.6,131.3667,22.82,82,100,2.62,JP,1694386190
489,fisterra,42.9049,-9.2629,18.34,86,67,2.18,ES,1694386191
490,borogontsy,62.6683,131.1683,1.99,99,100,2.17,RU,1694386191
491,khandud,36.9513,72.318,12.92,29,0,2.02,AF,1694386192
492,al ghayzah,16.2079,52.176,27.19,90,97,4.64,YE,1694386192
493,volchikha,52.0333,80.3833,14.33,66,94,3.92,RU,1694386193
494,ash shihaniyah,25.3686,51.2264,33.79,55,7,2.22,QA,1694386193
495,douz,33.4663,9.0203,27.55,40,0,4.64,TN,1694386193
496,opuwo,-18.0607,13.84,17.68,47,38,2.94,NA,1694386194
497,usinsk,65.9939,57.5281,9.05,89,69,4.06,RU,1694386194
498,polyany,54.7122,39.8231,14.3,70,100,2.03,RU,1694386194
499,luanda,-8.8368,13.2343,23.0,73,1,2.06,AO,1694386135
500,muravlenko,63.7898,74.523,10.38,76,99,2.93,RU,1694386195
501,fort bragg,35.139,-79.006,29.91,66,40,2.57,US,1694385903
502,whitecourt,54.1502,-115.6855,22.58,49,40,8.75,CA,1694386196
503,cabinda,-5.55,12.2,22.88,88,30,4.06,AO,1694386196
504,vinces,-1.55,-79.7333,31.41,49,39,1.41,EC,1694386197
505,saint-paul,-21.0096,55.2707,22.05,86,2,0.45,RE,1694386197
506,toliara,-23.35,43.6667,22.71,46,0,2.3,MG,1694386197
507,touros,-5.1989,-35.4608,24.53,81,10,6.82,BR,1694386198
508,bainbridge,47.6262,-122.5212,29.25,46,0,4.12,US,1694386017
509,boca do acre,-8.7522,-67.3978,26.38,73,70,0.69,BR,1694386199
510,sinabang,2.4803,96.3801,26.41,82,99,3.82,ID,1694386199
511,manwat,19.3,76.5,22.64,91,99,4.54,IN,1694386199
512,ikalamavony,-21.15,46.5833,15.06,84,10,2.48,MG,1694386200
513,villa regina,-39.1,-67.0667,13.32,32,100,0.89,AR,1694386200
514,rosarito,32.3333,-117.0333,32.57,61,98,5.06,MX,1694386088
515,guixi,28.2886,117.2133,24.69,83,18,1.32,CN,1694386201
516,cromer,52.9312,1.2989,20.46,73,85,4.41,GB,1694386201
517,muntok,-2.0667,105.1833,24.58,88,52,4.82,ID,1694386202
518,ponnani,10.767,75.9252,23.62,88,100,2.14,IN,1694386202
519,esquel,-42.9,-71.3167,3.16,86,27,3.02,AR,1694386194
520,melekeok village,7.4957,134.6367,27.6,81,100,4.85,PW,1694386203
521,kalajoki,64.25,23.95,15.51,87,56,2.0,FI,1694386204
522,san antonio,29.4241,-98.4936,38.92,32,0,4.63,US,1694386054
523,horta,38.5333,-28.6333,20.57,85,29,2.68,PT,1694386206
524,beroroha,-21.6667,45.1667,21.83,61,0,2.59,MG,1694386206
525,miyaly,48.8844,53.7836,11.46,69,72,4.42,KZ,1694386206
526,cullompton,50.8553,-3.3927,18.68,93,40,1.79,GB,1694386207
527,kamin-kashyrskyi,51.6241,24.9586,15.06,60,92,2.76,UA,1694386207
528,kiamba,5.9894,124.6242,27.21,76,62,0.89,PH,1694386207
529,guerrero negro,27.9769,-114.0611,25.56,67,4,7.22,MX,1694386208
530,guankou,28.15,113.6333,26.89,88,28,1.31,CN,1694386208
531,port shepstone,-30.7414,30.455,19.15,78,23,8.02,ZA,1694385834
532,les anglais,18.3054,-74.2197,28.65,80,22,0.66,HT,1694386209
533,taro,-8.3862,115.28,22.0,90,73,1.03,ID,1694386209
534,arawa,-6.2132,155.5367,26.54,71,99,2.72,PG,1694386210
535,honolulu,21.3069,-157.8583,30.9,62,75,8.23,US,1694385999
536,pandan,14.0453,124.1694,27.18,82,70,1.38,PH,1694386210
537,morondava,-20.2833,44.2833,23.29,84,0,3.57,MG,1694386211
538,neuquen,-38.9516,-68.0591,10.94,87,100,0.0,AR,1694386038
539,monteagudo,-19.8167,-63.9833,24.8,41,0,1.65,BO,1694386212
540,debark',13.1561,37.8981,11.95,78,94,0.67,ET,1694386212
541,kulhudhuffushi,6.6221,73.07,27.33,77,100,5.73,MV,1694386212
542,borger,52.9233,6.7931,21.57,86,98,3.36,NL,1694385981
543,ouadda,8.0777,22.4007,20.44,98,89,1.34,CF,1694386213
544,taldykorgan,45.0156,78.3739,20.16,43,45,2.9,KZ,1694386213
545,gisborne,-38.6533,178.0042,15.47,62,96,1.58,NZ,1694385934
546,kimbe,-5.5502,150.1429,27.24,75,100,4.42,PG,1694386214
547,liberia,6.5,-9.5,21.85,99,94,0.89,LR,1694386214
548,kingston,17.997,-76.7936,32.53,66,20,1.54,JM,1694385749
549,glace bay,46.1969,-59.957,20.03,89,75,2.57,CA,1694386215
550,barra do garcas,-15.89,-52.2567,31.06,26,21,1.39,BR,1694386215
551,hassi messaoud,31.6804,6.0729,32.92,21,0,1.54,DZ,1694386216
552,gamboma,-1.8764,15.8644,24.49,80,64,2.12,CG,1694386216
553,khandyga,62.6667,135.6,2.59,98,100,1.59,RU,1694386217
554,ondo,7.1,4.8333,22.59,99,39,1.15,NG,1694386217
555,khon kaen,16.5,102.0833,23.71,94,100,1.29,TH,1694386217
556,madang,-5.2246,145.7966,26.33,86,100,1.58,PG,1694386218
557,ataq,14.5377,46.8319,27.0,35,63,2.49,YE,1694386218
558,nova xavantina,-14.6667,-52.35,30.9,26,0,1.31,BR,1694386218
559,mwene-ditu,-7.0,23.45,21.84,80,84,2.43,CD,1694386219
560,doma,8.3833,8.35,24.41,91,52,1.24,NG,1694386219
561,praia,14.9215,-23.5087,27.3,89,40,3.6,CV,1694386219
562,fort st. john,56.2499,-120.8529,23.94,35,40,4.63,CA,1694386220
563,inda silase,14.1031,38.2829,18.6,74,95,0.58,ET,1694386220
564,ebon,4.582,168.6964,28.52,71,96,2.75,MH,1694386220
