City_ID,City,Lat,Lng,Max Temp,Humidity,Cloudiness,Wind Speed,Country,Date
0,boa vista,2.8197,-60.6733,36.99,36,75,2.06,BR,1695756459
1,enewetak,11.3474,162.3373,28.43,78,100,6.11,MH,1695756077
2,whitehorse,60.7161,-135.0538,5.43,89,100,2.57,CA,1695756222
3,ribeira grande,38.5167,-28.7,23.22,94,40,7.72,PT,1695756203
4,hermanus,-34.4187,19.2345,13.42,82,0,3.54,ZA,1695756207
5,guanare,9.0418,-69.7421,33.71,51,73,2.21,VE,1695756461
6,edinburgh of the seven seas,-37.0676,-12.3116,13.25,73,0,8.71,SH,1695756208
7,sola,-13.8833,167.55,24.99,78,100,11.5,VU,1695756350
8,olonkinbyen,70.9221,-8.7187,3.93,84,92,7.46,SJ,1695756220
9,huarmey,-10.0681,-78.1522,22.36,70,0,5.98,PE,1695756462
10,kodiak,57.79,-152.4072,9.73,53,0,4.12,US,1695756212
11,punta arenas,-53.15,-70.9167,10.01,61,75,11.32,CL,1695755962
12,port douglas,-16.4833,145.4667,21.91,81,98,6.36,AU,1695756464
13,shingu,33.7333,135.9833,21.94,89,5,1.77,JP,1695756464
14,bethel,41.3712,-73.414,17.98,69,75,3.6,US,1695756201
15,praia da vitoria,38.7333,-27.0667,23.14,88,40,8.96,PT,1695756261
16,srivardhan,18.0333,73.0167,26.69,90,100,2.92,IN,1695756465
17,port-aux-francais,-49.35,70.2167,1.97,82,98,16.88,TF,1695756202
18,hithadhoo,-0.6,73.0833,27.82,75,0,5.62,MV,1695756185
19,guerrero negro,27.9769,-114.0611,23.9,64,0,8.36,MX,1695756466
20,margaret river,-33.95,115.0667,11.37,66,0,3.25,AU,1695756237
21,yellowknife,62.456,-114.3525,8.56,100,100,7.15,CA,1695756179
22,port mathurin,-19.6833,63.4167,22.92,65,2,9.37,MU,1695756275
23,hawaiian paradise park,19.5933,-154.9731,25.73,86,100,2.06,US,1695756190
24,lorengau,-2.0226,147.2712,24.11,96,100,0.43,PG,1695756279
25,pechora,65.1472,57.2244,9.57,93,100,4.78,RU,1695756468
26,adamstown,-25.066,-130.1015,21.01,72,100,7.27,PN,1695756185
27,izberbash,42.5696,47.8645,15.03,67,30,2.73,RU,1695756469
28,makarov,48.6333,142.8,11.5,91,97,2.97,RU,1695756469
29,jayapura,-2.5333,140.7,24.66,95,100,1.86,ID,1695756470
30,carnot,4.9409,15.8665,23.12,89,45,0.65,CF,1695756470
31,chonchi,-42.6128,-73.8092,10.62,75,100,3.35,CL,1695756259
32,ust-nera,64.5667,143.2,0.58,93,100,3.33,RU,1695756186
33,ushuaia,-54.8,-68.3,7.79,87,75,11.83,AR,1695756035
34,happy valley-goose bay,53.3168,-60.3315,12.17,66,100,1.54,CA,1695756257
35,paita,-5.0892,-81.1144,23.45,70,14,7.89,PE,1695756472
36,grytviken,-54.2811,-36.5092,-0.37,81,18,3.43,GS,1695756187
37,mogadishu,2.0371,45.3438,25.79,85,21,7.11,SO,1695756314
38,isla vista,34.4133,-119.861,30.55,59,0,2.57,US,1695756473
39,waitangi,-43.9535,-176.5597,12.12,98,100,2.24,NZ,1695756209
40,tazovsky,67.4667,78.7,3.68,73,100,9.17,RU,1695756188
41,petropavlovsk-kamchatsky,53.0452,158.6483,1.33,87,0,2.0,RU,1695756216
42,dunda,-8.1167,34.25,25.01,43,94,2.97,TZ,1695756474
43,buka,40.8108,69.1986,18.24,25,0,2.46,UZ,1695756263
44,constantia,44.1833,28.65,21.5,69,28,8.33,RO,1695756125
45,mrakovo,52.7161,56.6244,10.67,83,5,2.13,RU,1695756475
46,nadym,65.5333,72.5167,3.59,85,100,4.59,RU,1695756475
47,margate,51.3813,1.3862,17.17,84,11,1.34,GB,1695756358
48,new norfolk,-42.7826,147.0587,6.51,98,47,1.53,AU,1695756333
49,iqaluit,63.7506,-68.5145,5.85,75,100,2.57,CA,1695756199
50,kirakira,-10.4544,161.9205,24.79,84,78,4.99,SB,1695756477
51,aasiaat,68.7098,-52.8699,0.2,78,93,5.3,GL,1695756237
52,invercargill,-46.4,168.35,2.28,95,25,2.57,NZ,1695756220
53,anadyr,64.75,177.4833,-0.72,93,40,2.0,RU,1695756264
54,tyazhinskiy,56.116,88.524,3.43,87,8,1.96,RU,1695756478
55,bilibino,68.0546,166.4372,-4.49,90,100,1.63,RU,1695756193
56,sao joao da barra,-21.6403,-41.0511,28.05,81,33,6.44,BR,1695756387
57,piacabucu,-10.4056,-36.4344,27.25,70,100,5.86,BR,1695756401
58,klyuchi,52.2667,79.1667,5.53,75,3,3.36,RU,1695756327
59,rio gallegos,-51.6226,-69.2181,11.03,46,20,4.12,AR,1695756480
60,laredo,27.5064,-99.5075,35.14,40,0,2.57,US,1695756480
61,uturoa,-16.7333,-151.4333,25.45,78,34,5.92,PF,1695756200
62,tura,25.5198,90.2201,23.3,94,14,0.89,IN,1695756384
63,remire-montjoly,4.9167,-52.2667,29.02,70,97,1.03,GF,1695756272
64,palmer,42.1584,-72.3287,18.76,57,75,4.63,US,1695756182
65,puerto ayora,-0.7393,-90.3518,28.98,90,100,4.02,EC,1695756276
66,pemba,-12.974,40.5178,26.39,78,75,5.66,MZ,1695756482
67,lompoc,34.6391,-120.4579,29.91,57,0,9.77,US,1695756075
68,tiksi,71.6872,128.8694,-0.83,73,100,10.37,RU,1695756192
69,lagoa,39.05,-27.9833,20.85,79,100,9.88,PT,1695756483
70,iskateley,67.6803,53.1512,9.58,96,100,6.2,RU,1695756252
71,den burg,53.0542,4.7972,18.33,82,100,3.09,NL,1695756484
72,talnakh,69.4865,88.3972,1.23,99,100,3.53,RU,1695756209
73,thal,35.4791,72.2439,10.75,68,39,1.36,PK,1695756485
74,stanley,54.868,-1.6985,13.36,85,20,3.6,GB,1695756201
75,san-pedro,4.7485,-6.6363,24.63,92,6,2.0,CI,1695756486
76,nuuk,64.1835,-51.7216,6.34,45,20,4.12,GL,1695756258
77,albany,42.6001,-73.9662,19.57,62,87,0.45,US,1695755923
78,nchelenge,-9.3451,28.734,27.24,42,39,1.72,ZM,1695756487
79,kavieng,-2.5744,150.7967,27.17,81,42,6.68,PG,1695756329
80,port lincoln,-34.7333,135.8667,12.03,78,56,5.5,AU,1695756252
81,ilulissat,69.2167,-51.1,0.01,64,75,2.57,GL,1695756279
82,vila franca do campo,37.7167,-25.4333,23.82,99,90,6.6,PT,1695756414
83,marianna,30.7744,-85.2269,28.05,83,75,3.6,US,1695756489
84,college,64.8569,-147.8028,6.15,73,20,2.57,US,1695756269
85,coronel suarez,-37.4547,-61.9334,16.85,47,43,2.4,AR,1695756490
86,newnham,-41.3833,147.1333,7.7,93,100,2.06,AU,1695756490
87,wailua homesteads,22.0669,-159.378,27.24,70,0,8.23,US,1695756194
88,blackmans bay,-43.0167,147.3167,5.85,91,80,1.94,AU,1695756195
89,howard springs,-12.497,131.047,23.95,79,77,0.97,AU,1695756395
90,udachny,66.4167,112.4,1.36,92,100,4.97,RU,1695756235
91,port elizabeth,-33.918,25.5701,15.17,72,40,4.12,ZA,1695756242
92,novyy turtkul',41.55,61.0167,13.95,27,0,4.3,UZ,1695756493
93,puerto aysen,-45.4,-72.7,5.34,99,100,2.7,CL,1695756493
94,santa cruz,-17.8,-63.1667,36.03,38,20,11.83,BO,1695756028
95,alpine,32.835,-116.7664,30.37,49,0,1.34,US,1695756261
96,morteros,-30.7116,-61.9986,17.22,52,100,8.92,AR,1695756211
97,sitka,57.0531,-135.33,13.94,72,100,5.14,US,1695756299
98,st. john's,47.5649,-52.7093,13.15,82,100,7.2,CA,1695756035
99,taoudenni,22.6783,-3.9836,40.19,8,0,3.77,ML,1695756495
100,carnarvon,-24.8667,113.6333,21.67,48,0,3.61,AU,1695756302
101,kroya,-7.6331,109.2461,22.74,89,64,2.08,ID,1695756496
102,queenstown,-31.8976,26.8753,8.69,77,100,3.97,ZA,1695756496
103,puerto natales,-51.7236,-72.4875,10.25,57,100,8.75,CL,1695756115
104,utrik,11.2278,169.8474,28.35,78,100,5.88,MH,1695756244
105,bredasdorp,-34.5322,20.0403,12.1,81,56,1.16,ZA,1695756206
106,fisterra,42.9049,-9.2629,19.45,83,100,1.15,ES,1695756497
107,marsh harbour,26.5412,-77.0636,29.07,76,100,5.34,BS,1695756404
108,nyala,12.05,24.8833,30.34,46,25,3.67,SD,1695756498
109,pamplona,42.8169,-1.6432,19.99,78,0,1.54,ES,1695756499
110,codrington,-38.2667,141.9667,8.76,77,100,4.16,AU,1695756292
111,luoyang,34.6836,112.4536,18.57,83,82,1.65,CN,1695756499
112,susuman,62.7833,148.1667,-4.88,88,69,0.59,RU,1695756229
113,kushima,31.4583,131.2333,22.78,88,1,2.07,JP,1695756500
114,semdinli,37.3051,44.5742,18.02,61,35,3.44,TR,1695756501
115,commerce,34.0006,-118.1598,32.29,54,0,4.63,US,1695756501
116,hajin,34.6927,40.827,31.3,22,0,2.81,SY,1695756501
117,revda,56.801,59.9303,6.08,92,17,2.02,RU,1695756502
118,bay harbor,30.1471,-85.6146,26.12,86,100,3.09,US,1695756502
119,vilyuchinsk,52.9306,158.4028,2.15,82,0,4.03,RU,1695756259
120,isafjordur,66.0755,-23.124,5.0,97,100,16.26,IS,1695756244
121,san borja,-14.8167,-66.85,41.9,21,39,4.15,BO,1695756503
122,bayanhongor,46.7167,100.1167,-2.22,38,30,0.98,MN,1695756504
123,port moresby,-9.4431,147.1797,23.65,90,100,3.88,PG,1695756321
124,lensk,60.7253,114.9278,6.94,73,89,1.36,RU,1695756505
125,avarua,-21.2078,-159.775,23.03,73,75,5.66,CK,1695756250
126,rebrikha,53.0733,82.3408,3.01,83,0,2.11,RU,1695756505
127,kuanda,56.3161,116.0806,6.67,84,68,0.87,RU,1695756251
128,san ignacio de velasco,-16.3667,-60.95,40.74,18,6,6.06,BO,1695756506
129,pemangkat,1.1667,108.9667,26.33,82,100,2.68,ID,1695756507
130,uyuni,-20.4597,-66.825,17.88,16,0,6.44,BO,1695756507
131,west island,-12.1568,96.8225,25.99,83,75,4.63,CC,1695756202
132,shizunai-furukawacho,42.3339,142.3669,17.02,85,100,2.01,JP,1695756508
133,thunder bay,48.4001,-89.3168,18.99,63,40,5.14,CA,1695756291
134,magadan,59.5667,150.8,3.65,71,80,2.69,RU,1695756303
135,papatowai,-46.5619,169.4708,6.04,92,98,2.27,NZ,1695756191
136,casariche,37.3037,-4.7582,26.52,43,6,3.76,ES,1695756509
137,sur,22.5667,59.5289,27.45,63,100,3.59,OM,1695756510
138,fort bragg,35.139,-79.006,25.75,70,100,4.12,US,1695756191
139,mikomeseng,2.1361,10.6132,21.61,99,70,1.3,GQ,1695756511
140,east ballina,-28.8667,153.5833,13.22,85,0,3.4,AU,1695756511
141,verdal,63.7933,11.4817,17.02,70,0,1.82,NO,1695756511
142,ust-tsilma,65.441,52.1498,10.8,93,100,4.53,RU,1695756512
143,port saint john's,-31.6229,29.5448,16.94,64,88,10.27,ZA,1695756296
144,mlangali,-9.7833,34.5167,16.06,69,3,2.96,TZ,1695756513
145,bengkulu,-3.8004,102.2655,23.05,94,70,1.72,ID,1695756238
146,nova sintra,14.8667,-24.7167,24.23,78,98,4.28,CV,1695756223
147,charters towers,-20.1,146.2667,14.79,91,5,3.17,AU,1695756514
148,coquimbo,-29.9533,-71.3436,18.85,45,0,5.66,CL,1695756196
149,malango,-2.9627,119.9001,17.54,86,100,0.99,ID,1695756514
150,kone,-21.0595,164.8658,15.59,77,23,1.8,NC,1695756515
151,inhambane,-23.865,35.3833,23.69,91,65,4.28,MZ,1695756515
152,kerikeri,-35.2268,173.9474,12.17,84,38,3.9,NZ,1695756388
153,balqash,46.8481,74.995,18.3,53,100,1.16,KZ,1695756516
154,labrador city,52.9463,-66.9114,16.95,29,40,3.09,CA,1695756230
155,ambato boeny,-16.4667,46.7167,25.59,46,5,4.34,MG,1695756517
156,jamestown,42.097,-79.2353,18.77,77,100,4.63,US,1695756214
157,saipan,15.1355,145.701,27.39,83,100,2.06,MP,1695756221
158,dingcheng,32.1272,115.0394,20.33,88,100,0.59,CN,1695756518
159,crane,31.3974,-102.3501,30.3,39,74,2.19,US,1695756518
160,fada,9.5667,8.3,20.1,95,100,3.29,NG,1695756519
161,panama city beach,30.1766,-85.8055,26.16,87,100,3.58,US,1695756519
162,kedrovyy,56.1667,91.8167,5.23,78,100,0.07,RU,1695756519
163,yuzhno-sukhokumsk,44.6581,45.6436,18.54,62,10,5.08,RU,1695756520
164,port alfred,-33.5906,26.891,14.54,86,100,1.34,ZA,1695756273
165,baker city,44.7749,-117.8344,17.55,50,100,5.14,US,1695756521
166,tannum sands,-23.9504,151.3693,13.94,88,0,2.57,AU,1695756521
167,sinop,41.7711,34.8709,15.41,78,2,1.41,TR,1695756522
168,chilliwack,49.1747,-121.9443,17.33,90,100,1.79,CA,1695756290
169,menemen,38.6075,27.0694,24.65,78,0,0.0,TR,1695756523
170,alice springs,-23.7,133.8833,13.75,38,7,2.57,AU,1695756523
171,timbiqui,2.7717,-77.6654,28.77,79,80,3.39,CO,1695756523
172,kolonia town,6.964,158.206,25.0,100,100,1.54,FM,1695756524
173,puerto baquerizo moreno,-0.9,-89.6,27.55,69,40,8.23,EC,1695756154
174,east london,-33.0153,27.9116,15.32,74,100,10.23,ZA,1695756343
175,bamiantong,44.9333,130.5333,12.48,91,18,1.95,CN,1695756525
176,hobyo,5.3505,48.5268,25.99,84,76,11.5,SO,1695756526
177,badger,64.8,-147.5333,6.1,70,20,2.57,US,1695756228
178,sinabang,2.4803,96.3801,25.88,80,98,2.78,ID,1695756353
179,mata-utu,-13.2816,-176.1745,27.35,78,97,7.17,WF,1695756527
180,bamboo flat,11.7,92.7167,26.05,89,75,0.0,IN,1695756527
181,vadso,70.0744,29.7487,10.49,87,20,2.57,NO,1695756528
182,santa ana,33.7456,-117.8678,32.45,55,0,4.12,US,1695755887
183,thompson,55.7435,-97.8558,22.09,56,40,4.12,CA,1695756277
184,tolanaro,-25.0319,46.9987,23.04,78,20,11.83,MG,1695756319
185,extrema,-22.8547,-46.3183,32.45,32,81,1.69,BR,1695756529
186,sokoni,-6.4333,39.55,25.47,79,6,6.7,TZ,1695756529
187,rudbar,30.15,62.6,22.92,16,0,3.06,AF,1695756530
188,arraial do cabo,-22.9661,-42.0278,27.98,83,20,6.69,BR,1695756269
189,zhaotong,27.3167,103.7167,14.73,94,93,0.47,CN,1695756531
190,thames,-37.1333,175.5333,11.33,86,90,5.43,NZ,1695756531
191,kayangel,8.0823,134.7173,27.59,81,100,9.29,PW,1695756261
192,tahlequah,35.9154,-94.97,31.13,36,0,2.21,US,1695756532
193,la sarre,48.8002,-79.1996,19.28,38,0,3.2,CA,1695756532
194,wanning,18.8003,110.3967,26.55,90,100,2.51,CN,1695756533
195,weno,7.4515,151.8468,26.97,94,100,3.6,FM,1695756533
196,hasaki,35.7333,140.8333,22.38,86,45,1.58,JP,1695756029
197,pont rouge,48.8833,-72.0825,17.06,46,0,0.82,CA,1695756534
198,hamilton,39.1834,-84.5333,29.22,54,40,3.09,US,1695756132
199,mazatlan,23.2167,-106.4167,34.95,68,40,4.12,MX,1695756535
200,leh,34.1667,77.5833,9.41,28,0,1.86,IN,1695756535
201,okha,53.5739,142.9478,6.54,89,100,3.62,RU,1695756536
202,dakhla,23.6848,-15.958,23.01,73,100,10.29,EH,1695756536
203,cannonvale,-20.2833,148.7,21.66,68,11,5.17,AU,1695756322
204,christchurch,-43.5333,172.6333,7.73,77,75,5.66,NZ,1695755886
205,aoulef,26.9667,1.0833,36.68,11,40,1.16,DZ,1695756537
206,gadzhiyevo,69.2551,33.3362,8.2,94,95,4.77,RU,1695756537
207,keflavik,64.0049,-22.5624,11.95,66,75,8.23,IS,1695756297
208,oranjemund,-28.55,16.4333,14.13,82,0,7.07,NA,1695756222
209,anatoli,39.6389,20.8653,20.86,53,100,8.05,GR,1695756538
210,tucupita,9.0622,-62.051,32.25,56,100,1.87,VE,1695756431
211,nar'yan-mar,67.6713,53.087,9.66,96,100,6.21,RU,1695756298
212,sao vicente,-23.9631,-46.3919,40.1,89,100,2.06,BR,1695756539
213,pyhajarvi,67.0701,27.2176,10.42,95,30,4.5,FI,1695756540
214,turpan,42.9333,89.1667,18.64,31,6,0.71,CN,1695756540
215,belek,36.8628,31.0556,25.55,72,93,1.86,TR,1695756541
216,dunedin,-45.8742,170.5036,7.67,80,100,0.45,NZ,1695756278
217,lihue,21.9789,-159.3672,27.58,70,0,8.23,US,1695755953
218,ozalp,38.6548,43.993,12.62,65,37,2.53,TR,1695756269
219,roskovec,40.7375,19.7022,24.31,42,100,0.96,AL,1695756542
220,vila velha,-20.3297,-40.2925,26.08,83,40,5.81,BR,1695756123
221,praia,14.9215,-23.5087,29.3,61,0,4.12,CV,1695756401
222,tindouf,27.6711,-8.1474,36.25,11,0,5.14,DZ,1695756543
223,la'ie,21.6477,-157.9253,28.98,67,15,7.53,US,1695756358
224,whitecourt,54.1502,-115.6855,17.58,45,75,4.63,CA,1695756544
225,tromso,69.6496,18.957,11.01,87,75,9.26,NO,1695756545
226,amga,60.8953,131.9608,1.17,86,0,0.5,RU,1695756545
227,broken hill,-31.95,141.4333,13.03,56,82,6.87,AU,1695756546
228,north bend,43.4065,-124.2243,19.02,68,100,8.75,US,1695756546
229,longyearbyen,78.2186,15.6401,-7.09,79,20,2.06,SJ,1695756198
230,villa la angostura,-40.7617,-71.6463,4.51,77,89,3.86,AR,1695756547
231,senekal,-28.3197,27.6208,8.72,60,6,5.91,ZA,1695756547
232,bodo,67.28,14.405,14.87,78,75,10.8,NO,1695756298
233,georgetown,5.4112,100.3354,25.96,97,20,0.0,MY,1695756064
234,atafu village,-8.5421,-172.5159,28.07,72,24,3.66,TK,1695756218
235,mount isa,-20.7333,139.5,22.87,27,1,3.09,AU,1695756270
236,veraval,20.9,70.3667,26.8,81,100,3.56,IN,1695756304
237,vilyuysk,63.7553,121.6247,4.05,79,100,2.13,RU,1695756549
238,tralee,52.2704,-9.7026,11.29,89,92,2.45,IE,1695756198
239,flin flon,54.7682,-101.865,21.91,56,40,4.63,CA,1695756379
240,coyhaique,-45.5752,-72.0662,8.97,57,100,1.54,CL,1695756550
241,kefamenanu,-9.4467,124.4781,19.21,87,73,1.39,ID,1695756551
242,sungailiat,-1.85,106.1333,25.87,77,14,4.11,ID,1695756551
243,fortuna,40.5982,-124.1573,20.37,67,20,0.0,US,1695756262
244,nuriootpa,-34.4833,139.0,10.45,94,0,2.23,AU,1695756552
245,narvik,68.4384,17.4272,12.99,99,100,3.99,NO,1695756528
246,country club estates,31.2127,-81.4643,23.35,99,100,5.14,US,1695756553
247,hammerfest,70.6634,23.6821,10.25,87,75,4.63,NO,1695756256
248,castillos,-34.1667,-53.8333,10.51,90,100,4.46,UY,1695756554
249,shimoda,34.6667,138.95,22.28,82,14,2.67,JP,1695756351
250,saint-francois,46.4154,3.9054,17.04,88,0,1.03,FR,1695756364
251,post,33.1909,-101.3782,30.54,32,0,0.75,US,1695756555
252,kirensk,57.7853,108.1119,7.09,94,12,2.27,RU,1695756555
253,masterton,-40.9597,175.6575,8.27,97,100,6.65,NZ,1695756326
254,peace river,56.2501,-117.286,16.17,67,75,2.57,CA,1695756556
255,murghob,38.1702,73.9667,3.77,25,17,1.11,TJ,1695756556
256,zhanaozen,43.3,52.8,19.82,30,0,5.51,KZ,1695756557
257,haiku-pauwela,20.9219,-156.3051,26.69,73,40,6.71,US,1695756249
258,ilhabela,-23.7781,-45.3581,23.28,93,74,4.55,BR,1695756557
259,hurricane,37.1753,-113.2899,32.19,22,4,2.24,US,1695756558
260,al kharijah,25.4514,30.5464,30.63,18,0,3.91,EG,1695756314
261,as sulayyil,20.4607,45.5779,33.14,13,0,3.05,SA,1695756559
262,namibe,-15.1961,12.1522,18.4,86,88,1.09,AO,1695756559
263,ketchikan,55.3422,-131.6461,13.99,94,100,9.26,US,1695756560
264,ulan bator,47.9077,106.8832,3.07,75,75,2.0,MN,1695756512
265,nizhniy kuranakh,58.8353,125.4869,2.94,93,27,0.37,RU,1695756560
266,constitucion,-35.3333,-72.4167,14.22,58,0,10.25,CL,1695756561
267,tailai,46.3833,123.4,14.3,37,82,3.65,CN,1695756561
268,aykhal,66.0,111.5,1.0,78,100,6.88,RU,1695756295
269,karagandy,49.8019,73.1021,6.97,61,100,0.23,KZ,1695756562
270,papao,-17.75,-149.55,26.82,86,38,8.28,PF,1695756562
271,shimla,31.1,77.1667,13.0,81,0,2.08,IN,1695756350
272,kupang,-10.1667,123.5833,24.32,73,8,1.54,ID,1695756563
273,warora,20.2333,79.0,25.3,89,100,0.93,IN,1695756563
274,sechura,-5.5569,-80.8222,27.26,54,27,6.81,PE,1695756564
275,selfoss,63.9331,-20.9971,10.02,82,100,11.06,IS,1695756281
276,aqadyr,48.2553,72.8483,16.54,50,100,0.83,KZ,1695756565
277,menongue,-14.6585,17.691,21.52,18,3,2.12,AO,1695756565
278,shitanjing,39.2342,106.3439,13.25,26,100,2.93,CN,1695756566
279,mugia,43.1041,-9.2179,19.53,84,100,0.3,ES,1695756566
280,kruisfontein,-34.0033,24.7314,13.82,77,96,4.7,ZA,1695756215
281,lepsy,46.235,78.9456,15.33,59,41,4.95,KZ,1695756567
282,qaqortoq,60.7167,-46.0333,5.34,47,0,1.79,GL,1695756286
283,al ghayzah,16.2079,52.176,26.11,83,72,3.41,YE,1695756568
284,penarroya-pueblonuevo,38.3,-5.2667,25.81,32,13,2.09,ES,1695756569
285,yulinshi,38.2906,109.7494,18.88,35,100,1.81,CN,1695756569
286,umba,66.6871,34.3429,10.13,94,32,4.63,RU,1695756570
287,okhotsk,59.3833,143.3,4.33,57,77,3.89,RU,1695756400
288,tazacorte,28.629,-17.9293,25.54,94,20,3.6,ES,1695756570
289,vanimo,-2.6741,141.3028,24.9,90,100,2.38,PG,1695756245
290,rongelap,11.1635,166.8941,28.65,74,100,6.08,MH,1695756285
291,cockburn town,21.4612,-71.1419,29.21,75,59,6.73,TC,1695756571
292,cabo san lucas,22.8909,-109.9124,35.9,71,0,3.6,MX,1695755753
293,big stone gap,36.8677,-82.7745,28.42,38,0,0.47,US,1695756300
294,minab,27.1467,57.0801,30.61,40,0,0.31,IR,1695756573
295,san patricio,28.017,-97.5169,33.99,38,0,2.59,US,1695756331
296,kourou,5.1552,-52.6478,29.03,62,100,4.87,GF,1695756225
297,rio grande,-32.035,-52.0986,15.06,95,100,7.66,BR,1695756292
298,lesnoy,57.6198,63.0784,6.97,77,13,1.65,RU,1695756574
299,olyokminsk,60.3736,120.4264,7.61,91,24,0.51,RU,1695756575
300,nuku'alofa,-21.1333,-175.2,24.19,83,20,6.17,TO,1695756099
301,tobelo,1.7284,128.0095,24.94,80,75,2.58,ID,1695756576
302,vygonichi,53.0985,34.0673,10.87,66,83,2.33,RU,1695756576
303,arteche,12.2645,125.4048,24.7,93,3,2.44,PH,1695756577
304,nizhniy odes,63.6445,54.856,9.87,94,100,4.57,RU,1695756577
305,brookings,44.3114,-96.7984,19.54,80,75,3.6,US,1695756332
306,punta cana,18.5818,-68.4043,30.87,70,40,4.12,DO,1695756489
307,linghai,41.1653,121.3667,16.02,88,69,2.17,CN,1695756578
308,'ain el turk,35.7438,-0.7693,22.5,73,20,3.6,DZ,1695756579
309,kardla,58.9978,22.7492,13.36,83,100,2.88,EE,1695756579
310,recani,31.2846,-4.2688,32.19,17,0,4.62,MA,1695756580
311,bojnurd,37.4747,57.329,17.97,45,0,5.14,IR,1695756580
312,broome,42.2506,-75.833,18.7,77,75,3.13,US,1695756580
313,luderitz,-26.6481,15.1594,19.77,47,0,8.89,NA,1695756581
314,tarawa,1.419,172.984,27.05,89,75,0.0,KI,1695756581
315,koryazhma,61.3143,47.1691,12.17,85,100,3.5,RU,1695756188
316,glasgow,55.8652,-4.2576,13.23,86,92,4.12,GB,1695756430
317,harlingen,26.1906,-97.6961,36.95,48,40,2.06,US,1695756301
318,kargil,34.5667,76.1,8.3,45,0,2.46,IN,1695756583
319,forster,-32.1667,152.5167,10.72,100,4,1.95,AU,1695756583
320,lata,40.1629,-8.3327,21.62,73,99,1.23,PT,1695756231
321,daru,-9.0763,143.2092,24.89,83,100,7.08,PG,1695756383
322,kalmunai,7.4167,81.8167,27.21,76,100,2.4,LK,1695756584
323,manakara,-22.1333,48.0167,21.01,87,0,3.48,MG,1695756585
324,victoria,22.2855,114.1577,29.62,81,70,4.47,HK,1695756468
325,naze,28.3667,129.4833,25.51,85,11,4.28,JP,1695756551
326,karratha,-20.7377,116.8463,26.16,30,48,6.17,AU,1695756279
327,turkestan,43.3333,68.25,19.04,36,0,5.11,KZ,1695756586
328,bilozerka,46.6248,32.4425,19.5,42,0,2.96,UA,1695756586
329,fontem,5.4685,9.8818,20.49,91,20,1.14,CM,1695756587
330,westport,41.1415,-73.3579,17.9,77,100,6.17,US,1695756398
331,gisborne,-38.6533,178.0042,10.35,90,100,1.38,NZ,1695756587
332,otelu rosu,45.5333,22.3667,21.91,59,9,2.16,RO,1695756588
333,kudahuvadhoo,2.6708,72.8944,28.01,78,19,4.56,MV,1695756588
334,bartica,6.4,-58.6167,32.18,51,92,3.04,GY,1695756588
335,glendive,47.1053,-104.7125,25.79,44,0,6.69,US,1695756589
336,sitia,35.2,26.0986,26.1,74,0,3.42,GR,1695756589
337,olinda,-8.0089,-34.8553,27.85,65,20,5.66,BR,1695756544
338,pacific grove,36.6177,-121.9166,25.12,77,40,4.02,US,1695756590
339,tsiombe,-25.3,45.4833,23.42,70,100,1.02,MG,1695756210
340,vorgashor,67.5833,63.95,1.6,79,97,1.66,RU,1695756233
341,darwin,-12.4611,130.8418,23.99,78,60,1.03,AU,1695756468
342,ulsteinvik,62.3432,5.8487,18.5,55,100,1.34,NO,1695755972
343,sukhinichi,54.0999,35.3425,10.48,76,83,1.24,RU,1695756592
344,freetown,8.484,-13.2299,26.75,85,92,2.79,SL,1695756092
345,antigonish,45.6169,-61.9986,17.12,71,0,1.34,CA,1695756377
346,tsetserleg,47.475,101.4542,-1.64,37,6,1.94,MN,1695756593
347,gokceada,40.2011,25.909,22.6,74,100,12.97,TR,1695756593
348,santander,43.4647,-3.8044,21.84,91,0,2.68,ES,1695756594
349,ola,59.5833,151.2833,3.9,76,88,2.23,RU,1695756226
350,itaituba,-4.2761,-55.9836,40.09,37,20,1.01,BR,1695756594
351,missoula,47.0166,-113.8009,15.91,51,71,3.34,US,1695756595
352,demak,-6.8909,110.6396,24.98,70,75,2.98,ID,1695756595
353,dubbo,-32.25,148.6167,8.07,87,23,2.57,AU,1695756595
354,sabang,5.8933,95.3214,27.78,78,100,7.7,ID,1695756596
355,kavaratti,10.5669,72.642,28.64,75,100,6.07,IN,1695756596
356,paoua,7.2427,16.4406,23.52,93,98,0.56,CF,1695756597
357,uludere,37.445,42.8617,19.43,28,2,2.21,TR,1695756597
358,vernon,50.2581,-119.2691,18.5,76,15,1.34,CA,1695756408
359,pimentel,-6.8367,-79.9342,25.16,61,0,9.77,PE,1695756352
360,dudinka,69.4058,86.1778,1.46,94,100,5.05,RU,1695756321
361,jiuquan,39.7432,98.5174,11.9,41,85,2.16,CN,1695756599
362,mhamid,29.82,-5.72,35.48,10,0,5.73,MA,1695756599
363,howrah,22.5892,88.3103,29.0,89,20,2.57,IN,1695756250
364,nova vicosa,-17.8919,-39.3719,27.54,69,100,6.99,BR,1695756230
365,lautoka,-17.6167,177.4667,22.92,94,75,2.06,FJ,1695756402
366,san martin,-33.081,-68.4681,17.3,17,4,3.84,AR,1695756601
367,morant bay,17.8815,-76.4093,33.79,69,70,4.6,JM,1695756601
368,bandon,51.7469,-8.7425,11.77,93,100,2.68,IE,1695756602
369,rovaniemi,66.5,25.7167,10.67,93,0,6.17,FI,1695756413
370,pontes e lacerda,-15.2261,-59.3353,41.67,16,7,4.24,BR,1695756603
371,qamdo,31.1667,97.2333,2.84,77,67,1.64,CN,1695756206
372,berbera,10.4396,45.0143,31.58,67,100,2.02,SO,1695756604
373,bongaree,-27.0797,153.1586,14.73,76,0,3.95,AU,1695756479
374,plettenberg bay,-34.0527,23.3716,14.16,80,52,2.6,ZA,1695756594
375,castelli,-25.9468,-60.6195,22.39,62,88,8.1,AR,1695756606
376,kununurra,-15.7667,128.7333,21.99,83,6,3.09,AU,1695756314
377,lazaro cardenas,17.9583,-102.2,31.12,66,8,2.96,MX,1695756607
378,martins ferry,40.0959,-80.7245,21.23,76,100,4.63,US,1695756608
379,sochi,43.6,39.7303,21.05,59,0,3.37,RU,1695756608
380,flying fish cove,-10.4217,105.6791,23.82,83,100,6.17,CX,1695756254
381,greymouth,-42.4667,171.2,6.83,77,100,2.55,NZ,1695756609
382,markovo,57.3206,107.0881,6.38,96,11,2.14,RU,1695756232
383,long beach,33.767,-118.1892,31.02,70,0,3.6,US,1695756610
384,rio de janeiro,-22.9028,-43.2075,33.08,69,20,9.26,BR,1695756523
385,lebu,-37.6167,-73.65,10.63,59,5,6.44,CL,1695756215
386,kuta,-8.7233,115.1723,25.0,88,20,2.24,ID,1695756612
387,yuzhno-kurilsk,44.0306,145.8556,15.46,93,97,1.75,RU,1695756317
388,guatrache,-37.6678,-63.5302,20.18,21,80,6.85,AR,1695756612
389,tongliao,43.6125,122.2653,15.09,64,100,1.63,CN,1695756613
390,zhangye,38.9342,100.4517,12.27,41,76,1.83,CN,1695756613
391,kashmar,35.2383,58.4656,18.85,18,0,3.37,IR,1695756614
392,nizhnesortymskiy,62.4397,71.7603,3.89,87,96,3.83,RU,1695756614
393,nelidovo,56.2211,32.7774,9.44,86,75,1.27,RU,1695756614
394,myitkyina,25.3833,97.4,25.08,84,10,0.78,MM,1695756565
395,strelka,58.0728,93.0344,3.44,83,8,0.67,RU,1695756615
396,nakuru,-0.2833,36.0667,15.15,91,96,1.52,KE,1695756616
397,canutama,-6.5339,-64.3831,38.81,27,85,1.11,BR,1695756616
398,sao joao do piaui,-8.3581,-42.2467,38.39,21,40,2.5,BR,1695756617
399,coahuayana de hidalgo,18.7,-103.6583,32.69,65,41,2.85,MX,1695756390
400,acarau,-2.8856,-40.12,27.77,69,0,9.43,BR,1695756618
401,ancud,-41.8697,-73.8203,9.18,70,100,6.86,CL,1695756239
402,ambon,-3.6954,128.1814,27.15,95,20,3.09,ID,1695756225
403,kapuskasing,49.4169,-82.4331,21.0,37,20,2.57,CA,1695756073
404,prince george,53.9166,-122.753,16.69,47,75,11.32,CA,1695756524
405,nabire,-3.3667,135.4833,23.87,94,100,1.0,ID,1695756620
406,kingston,17.997,-76.7936,33.53,74,40,6.17,JM,1695756157
407,chui,-33.6971,-53.4616,11.47,89,100,6.25,UY,1695756219
408,kristiansund,63.1115,7.732,14.36,62,0,1.03,NO,1695756621
409,fermo,43.1647,13.7233,21.59,79,0,3.33,IT,1695756621
410,cidreira,-30.1811,-50.2056,17.86,96,100,8.78,BR,1695756348
411,fiambala,-27.6871,-67.6149,15.26,69,96,4.71,AR,1695756622
412,hassi messaoud,31.6804,6.0729,29.92,32,0,3.6,DZ,1695756623
413,hami,42.8,93.45,13.2,35,6,1.95,CN,1695756249
414,hadibu,12.65,54.0333,26.82,82,80,4.11,YE,1695756306
415,blenheim,-41.516,173.9528,8.07,95,100,1.91,NZ,1695756624
416,lame,10.4415,9.2396,21.37,89,98,2.29,NG,1695756625
417,kuacjok,8.3002,27.9903,24.08,79,5,0.67,SS,1695756626
418,san antonio de pale,-1.4014,5.6325,24.76,86,42,4.96,GQ,1695756626
419,perry,37.2506,-83.1999,29.1,37,0,1.17,US,1695756626
420,tual,-5.6667,132.75,25.54,84,99,7.66,ID,1695756627
421,alofi,-19.0595,-169.9187,23.94,78,40,3.6,NU,1695756287
422,santiago de cao,-7.9589,-79.2392,21.07,78,0,6.17,PE,1695756353
423,kashgar,39.4547,75.9797,17.56,29,0,2.0,CN,1695756628
424,road town,18.4167,-64.6167,33.05,66,40,3.6,VG,1695756365
425,zhalantun,48.0,122.7167,9.6,58,72,2.48,CN,1695756299
426,pakse,15.1167,105.7833,23.17,98,100,1.58,LA,1695756629
427,roma,43.2128,-75.4557,19.42,61,20,3.6,US,1695756065
428,kailua-kona,19.6406,-155.9956,29.04,73,20,3.6,US,1695756467
429,leava,-14.3,-178.1667,27.04,78,100,6.27,WF,1695756630
430,mount pearl,47.5166,-52.7813,12.69,82,100,7.2,CA,1695756271
431,madang,-5.2246,145.7966,24.25,93,100,2.78,PG,1695756631
432,fale old settlement,-9.3852,-171.2468,27.64,79,100,4.74,TK,1695756372
433,madera,37.1666,-119.8343,28.87,34,0,2.8,US,1695756632
434,sao joao de pirabas,-0.7747,-47.1772,28.66,71,4,4.79,BR,1695756632
435,yorkton,51.2167,-102.4677,19.91,64,0,8.23,CA,1695756632
436,miles city,46.4083,-105.8406,25.54,33,0,6.69,US,1695756310
437,shalqar,47.8333,59.6,20.22,44,66,1.72,KZ,1695756634
438,nemuro,43.3236,145.575,16.1,90,88,0.9,JP,1695756377
439,seven pagodas,12.6264,80.1722,27.03,81,57,5.05,IN,1695756635
440,sungai penuh,-2.0833,101.3833,17.24,88,100,0.58,ID,1695756636
441,sabinov,49.1031,21.0988,19.07,68,14,1.06,SK,1695756636
442,maiurno,13.4167,33.6667,26.25,71,51,4.28,SD,1695756637
443,sao felipe,-14.8167,-41.3833,35.72,20,97,2.91,BR,1695756637
444,ringkobing,56.0901,8.244,15.01,81,100,5.07,DK,1695756638
445,khandyga,62.6667,135.6,0.12,90,19,1.13,RU,1695756638
446,mujiayingzi,42.1167,118.7833,16.37,54,100,2.61,CN,1695756639
447,pisco,-13.7,-76.2167,22.03,64,0,4.63,PE,1695756278
448,ban phai,16.06,102.731,24.12,92,100,0.43,TH,1695756640
449,dryden,49.7833,-92.7503,22.16,49,40,2.57,CA,1695756355
450,smirnovo,54.5125,69.4222,12.05,87,100,1.85,KZ,1695756640
451,malynivka,49.8167,36.7333,17.28,44,3,3.44,UA,1695756641
452,mongo,12.1844,18.693,29.49,55,28,1.72,TD,1695756641
453,dos hermanas,37.2829,-5.9209,28.09,48,0,2.24,ES,1695756642
454,bairnsdale,-37.8333,147.6167,10.59,93,93,1.14,AU,1695756642
455,leeton,-34.5667,146.4,10.61,89,40,1.31,AU,1695756642
456,kurmuk,10.55,34.2833,21.09,87,94,1.75,SD,1695756643
457,smirnykh,49.75,142.8333,6.63,97,99,0.53,RU,1695756643
458,mili,6.0815,171.735,28.95,76,90,6.75,MH,1695756644
459,caraballeda,10.6112,-66.8522,35.04,63,20,3.6,VE,1695756644
460,elko,41.0002,-115.5012,24.3,17,4,4.02,US,1695756449
461,touros,-5.1989,-35.4608,26.65,70,16,6.28,BR,1695756645
462,arys,42.4252,68.795,17.61,33,6,2.35,KZ,1695756645
463,tselinnoye,53.0833,85.6667,2.37,85,2,0.66,RU,1695756646
464,dalhart,36.0595,-102.5133,30.01,35,0,7.72,US,1695756646
465,mamuju,-2.6748,118.8885,25.76,82,100,2.13,ID,1695756647
466,scottburgh,-30.2867,30.7532,18.17,50,81,11.18,ZA,1695756647
467,tuy hoa,13.0833,109.3,25.26,87,90,3.69,VN,1695756648
468,brisas de zicatela,15.8369,-97.0419,31.29,58,0,2.06,MX,1695756329
469,al marj,32.488,20.8317,20.44,70,0,6.21,LY,1695756649
470,singkil,-7.9855,111.4161,21.32,92,84,2.12,ID,1695756649
471,balabac,7.9868,117.0645,27.04,80,93,1.96,PH,1695756650
472,prince albert,53.2001,-105.7677,25.97,38,20,7.72,CA,1695756650
473,dickinson,29.4608,-95.0513,33.98,64,40,2.06,US,1695756651
474,kirriemuir,56.674,-3.0034,13.16,86,94,2.59,GB,1695756651
475,chernyshevskiy,63.0128,112.4714,2.09,76,100,1.88,RU,1695756651
476,afaahiti,-17.75,-149.2833,25.93,89,79,7.66,PF,1695756235
477,kargasok,59.0556,80.8572,6.05,85,100,4.7,RU,1695756652
478,akjoujt,19.6969,-14.4164,39.64,12,100,7.95,MR,1695756625
479,alaghsas,17.0187,8.0168,36.27,9,1,1.92,NE,1695756653
480,soissons,49.3333,3.3333,19.12,60,40,1.39,FR,1695756654
481,san fernando de apure,7.8878,-67.4724,30.76,72,71,1.72,VE,1695756654
482,popondetta,-8.7537,148.2534,22.31,96,100,1.05,PG,1695756654
483,dawson creek,55.7666,-120.2362,17.54,45,0,4.12,CA,1695756655
484,port blair,11.6667,92.75,26.02,89,75,0.0,IN,1695756655
485,dwarka,22.2394,68.9678,26.39,75,7,3.88,IN,1695756656
486,paramirim,-13.4425,-42.2389,36.31,13,62,5.01,BR,1695756656
487,al muwayh,22.4333,41.7583,30.73,16,73,3.59,SA,1695756657
488,merizo village,13.2658,144.6691,26.85,96,100,4.29,GU,1695756657
489,nurdagi,37.1773,36.7419,26.99,85,8,2.41,TR,1695756658
490,chantada,42.6088,-7.7712,17.05,65,90,1.03,ES,1695756658
491,rikaze,29.25,88.8833,11.4,49,0,1.91,CN,1695756308
492,levuka,50.1834,-105.4011,26.85,32,20,12.35,CA,1695756659
493,torres,-29.3353,-49.7269,20.21,97,97,3.28,BR,1695756660
494,jose pedro varela,-33.45,-54.5333,9.91,88,100,6.21,UY,1695756662
495,paracuru,-3.41,-39.0306,27.84,71,21,6.31,BR,1695756663
496,murashi,59.3999,48.9615,9.25,85,100,2.5,RU,1695756382
497,wuxue,29.8506,115.5525,21.74,92,64,1.5,CN,1695756663
498,glace bay,46.1969,-59.957,18.94,57,75,3.6,CA,1695756244
499,mirny,62.5353,113.9611,0.69,69,100,3.13,RU,1695756403
500,ta`u,-14.2336,-169.5144,26.09,76,100,8.46,AS,1695756204
501,karoi,-16.8099,29.6925,23.99,36,39,1.65,ZW,1695756665
502,cottage grove,44.8277,-92.9438,19.16,88,100,4.63,US,1695756666
503,viedma,-40.8135,-62.9967,15.93,28,0,4.92,AR,1695756665
504,mitchell,43.7094,-98.0298,20.41,68,100,3.6,US,1695756532
505,thanh hoa,19.8,105.7667,24.99,95,100,4.21,VN,1695756667
506,grand-bassam,5.2118,-3.7388,25.98,92,4,2.48,CI,1695756667
507,manokwari,-0.8667,134.0833,25.84,82,100,1.85,ID,1695756668
508,halifax,44.6453,-63.5724,18.16,65,100,4.63,CA,1695755867
509,talara,-4.5772,-81.2719,26.42,65,0,8.66,PE,1695756669
510,upata,8.0086,-62.3989,29.19,60,89,2.27,VE,1695756620
511,rimouski,48.4488,-68.524,15.1,60,0,1.9,CA,1695756384
512,boyalik,41.2634,28.6314,22.65,78,100,6.96,TR,1695756670
513,chapulco,18.6083,-97.4167,24.17,34,26,4.47,MX,1695756671
514,igarka,67.4667,86.5833,2.58,99,100,2.16,RU,1695756282
515,chopda,21.25,75.3,26.19,82,99,2.35,IN,1695756672
516,gardnerville ranchos,38.8882,-119.7413,24.55,22,0,4.02,US,1695756672
517,jiagedaqi,50.4167,124.1167,9.71,99,100,0.94,CN,1695756673
518,amahai,-3.3333,128.9167,23.73,84,93,1.28,ID,1695756673
519,oltiariq,40.3919,71.4742,16.86,24,0,1.13,UZ,1695756674
520,floro,61.5996,5.0328,17.04,59,75,8.75,NO,1695756674
521,strezhevoy,60.7333,77.5889,8.69,91,100,4.3,RU,1695756674
522,pipar,26.3856,73.5378,28.94,58,5,2.47,IN,1695756675
523,augusta,48.3667,10.8833,15.33,94,0,0.0,DE,1695756591
524,amungan,15.3652,119.9582,26.49,83,20,1.25,PH,1695756676
525,mahina,-17.5065,-149.489,26.87,74,20,7.2,PF,1695756676
526,afif,23.9065,42.9172,29.69,14,71,3.39,SA,1695756676
527,kempele,64.9131,25.5034,13.27,95,0,3.58,FI,1695756677
528,mermoz boabab,14.7065,-17.4758,28.88,84,40,3.09,SN,1695756677
529,yershov,51.3513,48.2766,15.29,61,20,3.7,RU,1695756678
530,manavalakurichi,8.1333,77.3,26.08,88,100,5.16,IN,1695756678
531,llerena,38.2354,-6.0739,25.24,36,5,2.3,ES,1695756678
532,lascano,-33.6667,-54.2,10.0,88,100,5.69,UY,1695756679
533,torit,4.4133,32.5678,22.46,87,23,1.92,SS,1695756679
534,jurbarkas,55.0778,22.7664,16.61,78,94,3.68,LT,1695756680
535,kearney,40.6995,-99.0815,25.49,51,0,4.12,US,1695756466
536,minas de marcona,-15.2119,-75.1103,16.86,64,82,9.29,PE,1695756254
537,dno,57.8277,29.9637,9.88,75,78,1.23,RU,1695756681
538,fauske,67.2588,15.3918,14.87,83,100,4.17,NO,1695756681
539,gorodishche,48.8045,44.4744,18.49,45,0,4.0,RU,1695756682
540,viana do castelo,41.6932,-8.8329,17.67,82,94,2.86,PT,1695756567
541,nabha,30.3747,76.1486,25.29,63,0,2.62,IN,1695756682
542,saynshand,44.8824,110.1163,7.46,25,0,6.08,MN,1695756683
543,lilongwe,-13.9669,33.7873,23.64,43,1,2.85,MW,1695756683
544,ixtapa,20.7,-105.2,32.35,70,20,3.6,MX,1695756684
545,santo antonio do ica,-3.1022,-67.9397,34.86,47,97,0.89,BR,1695756684
546,nosy varika,-20.5833,48.5333,20.06,88,9,2.07,MG,1695756684
547,xilin hot,43.9667,116.0333,8.94,28,7,5.34,CN,1695756685
548,haninge,59.1678,18.1448,12.59,93,100,3.16,SE,1695756686
549,sisimiut,66.9395,-53.6735,2.92,66,99,5.32,GL,1695756262
550,tofol,5.3248,163.0078,28.09,74,100,2.06,FM,1695756686
551,rehti,22.7333,77.4333,24.88,84,92,0.71,IN,1695756687
552,bel ombre,-4.6167,55.4167,24.91,83,75,6.17,SC,1695756687
553,rosetta,31.4044,30.4164,25.83,71,1,3.18,EG,1695756034
554,gurupi,-11.7292,-49.0686,40.52,17,40,2.56,BR,1695756266
555,vicksburg,32.3526,-90.8779,33.85,51,40,2.57,US,1695756675
556,peniche,39.3558,-9.3811,21.83,82,99,5.19,PT,1695756689
557,portland,45.5234,-122.6762,18.38,80,75,5.14,US,1695756303
558,belmonte,-15.8631,-38.8828,26.08,77,59,5.6,BR,1695756689
559,estevan,49.1334,-102.9842,22.19,49,0,8.75,CA,1695756690
560,reinosa,42.9996,-4.138,16.14,94,58,0.57,ES,1695756690
